"","Name","City","State","Zip","URL","Latitude","Longitude","ADMrate","Ownership","Citytype","SAT","AvgCost","Major_agriculture","Major_NatureResource","Major_Architecture","Major_CS","Major_Edu","Major_Engineering","Major_Bio","Major_MathStat","Major_Psychology","Major_SocialScience","Major_Business","Major_History"
"1","Alabama A & M University","Normal","AL","35762","www.aamu.edu/","34.783368","-86.568502","0.5256",1,"12","827",21475,"1","1","1","1","1","1","1","1","1","1","2","0"
"2","University of Alabama at Birmingham","Birmingham","AL","35294-0110","www.uab.edu","33.50223","-86.80917","0.8569",1,"12","1107",20621,"0","0","0","1","1","1","1","1","1","1","2","1"
"3","Amridge University","Montgomery","AL","36117-3553","www.amridgeuniversity.edu","32.362609","-86.17401","NULL",2,"12","NULL",16370,"0","0","0","0","0","0","0","0","0","0","2","0"
"4","University of Alabama in Huntsville","Huntsville","AL","35899","www.uah.edu","34.722818","-86.63842","0.8203",1,"12","1219",21107,"0","0","0","1","1","1","1","1","1","1","1","1"
"5","Alabama State University","Montgomery","AL","36104-0271","www.alasu.edu","32.364317","-86.295677","0.5326",1,"12","851",18184,"0","0","0","1","1","0","1","1","2","1","1","1"
"6","The University of Alabama","Tuscaloosa","AL","35487-0166","www.ua.edu/","33.2144","-87.545766","0.5105",1,"13","1185",26400,"0","1","0","1","1","2","1","1","1","1","2","1"
"7","Central Alabama Community College","Alexander City","AL","35010","www.cacc.edu","32.924429","-85.94653","NULL",1,"32","NULL",12054,"0","0","0","0","0","0","0","0","0","0","0","0"
"8","Athens State University","Athens","AL","35611","www.athens.edu","34.805625","-86.96514","NULL",1,"31","NULL",NA,"0","0","0","2","2","0","1","1","1","1","2","1"
"9","Auburn University at Montgomery","Montgomery","AL","36117-3596","www.aum.edu","32.369939","-86.177351","0.8017",1,"12","1009",17903,"0","0","0","1","1","0","2","1","1","1","1","1"
"10","Auburn University","Auburn","AL","36849","www.auburn.edu","32.604685","-85.482782","0.8347",1,"13","1215",25282,"1","1","1","1","1","1","1","1","1","1","2","1"
"11","Birmingham Southern College","Birmingham","AL","35254","www.bsc.edu/","33.515453","-86.853636","0.5339",2,"12","1181",45162,"0","1","0","0","1","1","1","1","1","1","1","1"
"12","Chattahoochee Valley Community College","Phenix City","AL","36869","www.cv.edu","32.42391","-85.031485","NULL",1,"41","NULL",6860,"0","0","0","0","0","0","0","0","0","0","0","0"
"13","Concordia College Alabama","Selma","AL","36701","www.ccal.edu/","32.42443","-87.023531","0.5328",2,"32","942",17603,"0","0","0","0","1","0","0","0","0","0","1","0"
"14","South University-Montgomery","Montgomery","AL","36116","southuniversity.edu","32.342684","-86.216488","NULL",3,"12","NULL",27870,"0","0","0","1","0","0","0","0","1","0","1","0"
"15","Enterprise State Community College","Enterprise","AL","36330-1300","www.escc.edu","31.297496","-85.836956","NULL",1,"32","NULL",8676,"0","0","0","0","0","0","0","0","0","0","0","0"
"16","James H Faulkner State Community College","Bay Minette","AL","36507-2698","www.faulknerstate.edu","30.852045","-87.779758","NULL",1,"32","NULL",11194,"0","0","0","0","0","0","0","0","0","0","0","0"
"17","Faulkner University","Montgomery","AL","36109-3390","www.faulkner.edu","32.384181","-86.21641","NULL",2,"12","NULL",30116,"0","0","0","1","1","0","1","1","1","0","1","1"
"18","Gadsden State Community College","Gadsden","AL","35903","www.gadsdenstate.edu","33.991866","-85.991299","NULL",1,"13","NULL",10243,"0","0","0","0","0","0","0","0","0","0","0","0"
"19","New Beginning College of Cosmetology","Albertville","AL","35951","www.nbccosmetology.com","34.27871","-86.196931","NULL",3,"32","NULL",NA,"0","0","0","0","0","0","0","0","0","0","0","0"
"20","George C Wallace State Community College-Dothan","Dothan","AL","36303-9234","www.wallace.edu","31.316086","-85.46355","NULL",1,"41","NULL",8735,"0","0","0","0","0","0","0","0","0","0","0","0"
"21","George C Wallace State Community College-Hanceville","Hanceville","AL","35077-2000","www.wallacestate.edu","34.07341","-86.781745","NULL",1,"32","NULL",11703,"0","0","0","0","0","0","0","0","0","0","0","0"
"22","George C Wallace State Community College-Selma","Selma","AL","36703-2808","www.wccs.edu","32.445611","-87.01324","NULL",1,"32","NULL",13756,"0","0","0","0","0","0","0","0","0","0","0","0"
"23","Herzing University-Birmingham","Birmingham","AL","35209","www.herzing.edu/","33.468105","-86.832299","1",3,"21","NULL",26200,"0","0","0","2","0","0","0","0","0","0","2","0"
"24","Huntingdon College","Montgomery","AL","36106-2148","www.huntingdon.edu","32.350939","-86.285313","0.5839",2,"12","1026",32370,"0","0","0","0","1","0","1","1","1","1","1","1"
"25","Heritage Christian University","Florence","AL","35630-9977","www.hcu.edu","34.859089","-87.662062","1",2,"13","NULL",18631,"0","0","0","0","0","0","0","0","0","0","0","0"
"26","J F Drake State Community and Technical College","Huntsville","AL","35811","www.drakestate.edu","34.772116","-86.573817","NULL",1,"12","NULL",14779,"0","0","0","0","0","0","0","0","0","0","0","0"
"27","Jacksonville State University","Jacksonville","AL","36265","www.jsu.edu/","33.822128","-85.766644","0.8326",1,"13","1041",20830,"0","0","0","1","1","0","1","1","1","1","2","1"
"28","Jefferson Davis Community College","Brewton","AL","36426","www.jdcc.edu","31.101995","-87.085829","NULL",1,"32","NULL",9496,"0","0","0","0","0","0","0","0","0","0","0","0"
"29","Jefferson State Community College","Birmingham","AL","35215-3098","www.jeffstateonline.com","33.652439","-86.707387","NULL",1,"12","NULL",13418,"0","0","0","0","0","0","0","0","0","0","0","0"
"30","John C Calhoun State Community College","Tanner","AL","35671","www.calhoun.edu","34.65428","-86.949131","NULL",1,"41","NULL",10052,"0","0","0","0","0","0","0","0","0","0","0","0"
"31","Judson College","Marion","AL","36756","www.judson.edu","32.630526","-87.316127","0.6525",2,"43","NULL",28840,"1","0","0","0","2","0","1","1","2","2","2","2"
"32","Lawson State Community College-Birmingham Campus","Birmingham","AL","35221-1717","www.lawsonstate.edu","33.451673","-86.890234","NULL",1,"12","NULL",12597,"0","0","0","0","0","0","0","0","0","0","0","0"
"33","University of West Alabama","Livingston","AL","35470","www.uwa.edu","32.59244","-88.186077","0.7199",1,"43","990",17839,"0","0","0","0","2","0","1","1","1","1","2","1"
"34","Lurleen B Wallace Community College","Andalusia","AL","36420-1418","www.lbwcc.edu","31.322947","-86.452262","NULL",1,"41","NULL",13423,"0","0","0","0","0","0","0","0","0","0","0","0"
"35","Marion Military Institute","Marion","AL","36756-3207","www.marionmilitary.edu","32.622359","-87.317998","0.6139",1,"43","1055",16520,"0","0","0","0","0","0","0","0","0","0","0","0"
"36","Miles College","Fairfield","AL","35064-2621","www.miles.edu","33.481306","-86.908605","NULL",2,"21","NULL",22436,"0","1","0","1","1","0","1","1","0","1","1","1"
"37","University of Mobile","Mobile","AL","36613-2842","www.umobile.edu","30.793247","-88.128934","0.5847",2,"41","1014",31220,"0","0","0","1","1","0","1","1","1","1","1","1"
"38","University of Montevallo","Montevallo","AL","35115-6000","www.montevallo.edu","33.10625","-86.865099","0.743",1,"21","1070",22440,"0","0","0","0","1","0","1","1","1","1","1","1"
"39","Northwest-Shoals Community College","Muscle Shoals","AL","35661","www.nwscc.edu","34.739567","-87.67733","NULL",1,"13","NULL",11000,"0","0","0","0","0","0","0","0","0","0","0","0"
"40","University of North Alabama","Florence","AL","35632-0001","www.una.edu","34.80658","-87.680999","0.6788",1,"13","1029",15494,"0","0","0","1","1","0","1","1","1","2","1","2"
"41","Northeast Alabama Community College","Rainsville","AL","35986","www.nacc.edu","34.545471","-85.911664","NULL",1,"42","NULL",8145,"0","0","0","0","0","0","0","0","0","0","0","0"
"42","Oakwood University","Huntsville","AL","35896","www.oakwood.edu","34.756628","-86.661628","0.4787",2,"12","928",36064,"0","0","0","1","1","0","1","1","1","1","1","1"
"43","Alabama Southern Community College","Monroeville","AL","36460","www.ascc.edu","31.488925","-87.326352","NULL",1,"41","NULL",10708,"0","0","0","0","0","0","0","0","0","0","0","0"
"44","Prince Institute-Southeast","Elmhurst","IL","60126","princeinstitute.edu","41.928952","-87.962922","NULL",3,"21","NULL",27183,"0","0","0","0","0","0","0","0","0","0","0","0"
"45","Reid State Technical College","Evergreen","AL","36401","www.rstc.edu","31.46071","-86.964486","NULL",1,"41","NULL",9158,"0","0","0","0","0","0","0","0","0","0","0","0"
"46","Bishop State Community College","Mobile","AL","36603-5898","www.bishop.edu","30.693972","-88.056982","NULL",1,"12","NULL",9955,"0","0","0","0","0","0","0","0","0","0","0","0"
"47","Samford University","Birmingham","AL","35229-2240","www.samford.edu","33.464578","-86.790932","0.5954",2,"21","1165",40900,"0","1","0","1","1","1","1","1","1","1","1","1"
"48","Selma University","Selma","AL","36701","selmauniversity.edu","32.420358","-87.033826","NULL",2,"32","NULL",12621,"0","0","0","0","0","0","0","0","0","0","1","0"
"49","Shelton State Community College","Tuscaloosa","AL","35405-8522","www.sheltonstate.edu","33.120531","-87.56148","NULL",1,"13","NULL",13426,"0","0","0","0","0","0","0","0","0","0","0","0"
"50","Snead State Community College","Boaz","AL","35957-0734","www.snead.edu","34.201247","-86.169479","NULL",1,"32","NULL",10376,"0","0","0","0","0","0","0","0","0","0","0","0"
"51","University of South Alabama","Mobile","AL","36688-0002","www.southalabama.edu","30.695081","-88.18189","0.8335",1,"12","1048",18525,"0","0","0","1","1","1","1","1","1","1","1","1"
"52","Spring Hill College","Mobile","AL","36608-1791","www.shc.edu","30.694751","-88.138199","0.5177",2,"12","1116",44970,"0","0","0","0","1","1","1","1","1","1","1","1"
"53","Southeastern Bible College","Birmingham","AL","35244-2083","www.sebc.edu","33.378935","-86.749045","1",2,"21","930",17066,"0","0","0","0","0","0","0","0","0","0","0","0"
"54","Stillman College","Tuscaloosa","AL","35401","www.stillman.edu","33.199228","-87.585242","0.5901",2,"13","811",26185,"0","0","0","0","1","0","1","1","1","0","1","1"
"55","Talladega College","Talladega","AL","35160","www.talladega.edu","33.434258","-86.113675","NULL",2,"32","NULL",20918,"0","0","0","1","1","0","1","1","1","1","1","1"
"56","H Councill Trenholm State Community College","Montgomery","AL","36108-3199","www.trenholmstate.edu","32.350109","-86.343057","NULL",1,"12","NULL",9912,"0","0","0","0","0","0","0","0","0","0","0","0"
"57","Troy University","Troy","AL","36082-0001","www.troy.edu","31.800128","-85.950191","0.4414",1,"41","1050",17354,"0","1","0","2","1","0","1","1","2","2","2","2"
"58","Tuskegee University","Tuskegee","AL","36088-1920","www.tuskegee.edu","32.431021","-85.710315","0.4922",2,"32","978",32853,"1","1","1","1","1","1","1","1","1","1","1","1"
"59","United States Sports Academy","Daphne","AL","36526-7055","www.ussa.edu","30.639329","-87.91163","NULL",2,"13","NULL",NA,"0","0","0","0","2","0","0","0","0","0","0","0"
"60","Bevill State Community College","Jasper","AL","35501","www.bscc.edu","33.835785","-87.265034","NULL",1,"32","NULL",13084,"0","0","0","0","0","0","0","0","0","0","0","0"
"61","University of Alaska Anchorage","Anchorage","AK","99508","www.uaa.alaska.edu","61.189554","-149.826135","NULL",1,"11","NULL",13610,"0","1","0","1","1","1","1","1","1","1","1","1"
"62","Alaska Bible College","Palmer","AK","99645","www.akbible.edu/","61.59843","-149.111341","NULL",2,"32","NULL",15990,"0","0","0","0","0","0","0","0","0","0","0","0"
"63","University of Alaska Fairbanks","Fairbanks","AK","99775-7500","www.uaf.edu","64.856483","-147.822943","NULL",1,"23","NULL",15340,"0","1","0","1","2","1","1","1","1","1","1","1"
"64","University of Alaska Southeast","Juneau","AK","99801-8697","www.uas.alaska.edu","58.38427","-134.636346","NULL",1,"33","NULL",15284,"0","1","0","1","2","0","1","1","0","2","2","0"
"65","Alaska Pacific University","Anchorage","AK","99508","www.alaskapacific.edu","61.191235","-149.804242","0.4207",2,"11","1054",42640,"0","1","0","0","1","0","1","0","1","0","2","0"
"66","AVTEC-Alaska's Institute of Technology","Seward","AK","99664-0889","www.avtec.edu/","60.110727","-149.444573","NULL",1,"43","NULL",NA,"0","0","0","0","0","0","0","0","0","0","0","0"
"67","Charter College-Anchorage","Anchorage","AK","99508","www.chartercollege.edu","61.195786","-149.840178","NULL",3,"11","NULL",30854,"0","0","0","2","0","0","0","0","0","0","2","0"
"68","Alaska Career College","Anchorage","AK","99507-1033","www.alaskacareercollege.edu","61.181443","-149.856954","NULL",3,"11","NULL",NA,"0","0","0","0","0","0","0","0","0","0","0","0"
"69","Everest College-Phoenix","Phoenix","AZ","85021-1641","www.everestcollegephoenix.edu","33.580985","-112.113845","NULL",3,"11","NULL",26404,"0","0","0","0","0","0","0","0","0","0","2","0"
"70","Collins College","Phoenix","AZ","85040","www.collinscollege.edu","33.40334","-111.98646","NULL",3,"11","NULL",NA,"0","0","0","1","0","0","0","0","0","0","1","0"
"71","Empire Beauty School-Paradise Valley","Phoenix","AZ","85032","www.empire.edu","33.602593","-111.976357","NULL",3,"11","NULL",NA,"0","0","0","0","0","0","0","0","0","0","0","0"
"72","Empire Beauty School-Tucson","Tucson","AZ","85716","www.empire.edu","32.235657","-110.927187","NULL",3,"11","NULL",NA,"0","0","0","0","0","0","0","0","0","0","0","0"
"73","Thunderbird School of Global Management","Glendale","AZ","85306-6000","www.thunderbird.edu","33.620887","-112.180861","NULL",2,"21","NULL",NA,"0","0","0","0","0","0","0","0","0","0","0","0"
"74","American Indian College Inc","Phoenix","AZ","85021","www.aicag.edu/","33.577738","-112.092247","NULL",2,"11","NULL",23387,"0","0","0","0","1","0","0","0","0","0","0","0"
"75","American Institute of Technology","Phoenix","AZ","85043-4729","www.ait-schools.com","33.442262","-112.175304","NULL",3,"11","NULL",NA,"0","0","0","0","0","0","0","0","0","0","0","0"
"76","Carrington College-Phoenix","Phoenix","AZ","85051-4063","www.carrington.edu","33.560821","-112.115546","0.9904",3,"11","NULL",NA,"0","0","0","0","0","0","0","0","0","0","0","0"
"77","Carrington College-Mesa","Mesa","AZ","85210","www.carrington.edu","33.39207","-111.855281","1",3,"11","NULL",NA,"0","0","0","0","0","0","0","0","0","0","0","0"
"78","Carrington College-Tucson","Tucson","AZ","85745","www.carrington.edu","32.224","-110.982961","1",3,"11","NULL",NA,"0","0","0","0","0","0","0","0","0","0","0","0"
"79","CollegeAmerica-Flagstaff","Flagstaff","AZ","86001","www.collegeamerica.edu","35.194607","-111.65739","NULL",2,"13","NULL",28692,"0","0","0","1","0","0","0","0","0","0","0","0"
"80","Arizona Academy of Beauty-East","Tucson","AZ","85712","www.arizonaacademy.com","32.237253","-110.872305","NULL",3,"11","NULL",NA,"0","0","0","0","0","0","0","0","0","0","0","0"
"81","Arizona Automotive Institute","Glendale","AZ","85301-3579","www.aai.edu","33.537249","-112.157344","NULL",3,"21","NULL",NA,"0","0","0","0","0","0","0","0","0","0","0","0"
"82","Brookline College-Phoenix","Phoenix","AZ","85021","www.brooklinecollege.edu","33.525384","-112.15007","NULL",3,"11","NULL",NA,"0","0","0","0","0","0","0","0","0","0","2","0"
"83","Arizona State University-Tempe","Tempe","AZ","85287","www.asu.edu/","33.422247","-111.934629","0.8433",1,"12","1145",22312,"0","1","1","1","1","1","1","1","1","2","1","1"
"84","Arizona Western College","Yuma","AZ","85365-8834","www.azwestern.edu","32.689306","-114.495968","NULL",1,"13","NULL",14247,"0","0","0","0","0","0","0","0","0","0","0","0"
"85","University of Arizona","Tucson","AZ","85721-0066","www.arizona.edu","32.232071","-110.950769","0.7462",1,"11","NULL",24617,"1","1","1","1","1","1","1","1","1","1","1","1"
"86","Southwest University of Visual Arts-Tucson","Tucson","AZ","85716","www.suva.edu","32.252384","-110.927321","NULL",3,"11","NULL",44388,"0","0","1","0","0","0","0","0","0","0","0","0"
"87","Central Arizona College","Coolidge","AZ","85128-9030","www.centralaz.edu","32.957092","-111.652501","NULL",1,"41","NULL",10163,"0","0","0","0","0","0","0","0","0","0","0","0"
"88","Brown Mackie College-Tucson","Tucson","AZ","85712","www.brownmackie.edu","32.236736","-110.895086","NULL",3,"11","NULL",24379,"0","0","0","1","0","0","0","0","0","0","1","0"
"89","Charles of Italy Beauty College","Lake Havasu City","AZ","86403","www.charlesofitaly.edu","34.475275","-114.328134","NULL",3,"13","NULL",NA,"0","0","0","0","0","0","0","0","0","0","0","0"
"90","Cochise County Community College District","Douglas","AZ","85607-6190","www.cochise.edu","31.365757","-109.690422","NULL",1,"42","NULL",10243,"0","0","0","0","0","0","0","0","0","0","0","0"
"91","Empire Beauty School-Flagstaff","Flagstaff","AZ","86004","www.empire.edu","35.197151","-111.625936","NULL",3,"13","NULL",NA,"0","0","0","0","0","0","0","0","0","0","0","0"
"92","Empire Beauty School-Chandler","Chandler","AZ","85224","www.empire.edu","33.347586","-111.860423","NULL",3,"21","NULL",NA,"0","0","0","0","0","0","0","0","0","0","0","0"
"93","Cortiva Institute-Tucson","Tucson","AZ","85710","www.cortiva.com/","32.21901","-110.856785","NULL",3,"11","NULL",NA,"0","0","0","0","0","0","0","0","0","0","0","0"
"94","Avalon School of Cosmetology-Mesa","Mesa","AZ","85210","avalon.edu/locations/mesa-az/","33.376583","-111.858305","NULL",3,"11","NULL",NA,"0","0","0","0","0","0","0","0","0","0","0","0"
"95","Eastern Arizona College","Thatcher","AZ","85552-0769","www.eac.edu","32.840719","-109.761664","NULL",1,"33","NULL",11640,"0","0","0","0","0","0","0","0","0","0","0","0"
"96","Embry-Riddle Aeronautical University-Prescott","Prescott","AZ","86301-3720","www.erau.edu","34.615678","-112.452285","0.8016",2,"41","NULL",46174,"0","0","0","0","0","1","0","0","1","1","1","0"
"97","Frank Lloyd Wright School of Architecture","Scottsdale","AZ","85261-4430","www.taliesin.edu","33.60715","-111.846477","NULL",2,"41","NULL",NA,"0","0","1","0","0","0","0","0","0","0","0","0"
"98","Glendale Community College","Glendale","AZ","85302","www.gccaz.edu","33.567483","-112.188334","NULL",1,"21","NULL",11822,"0","0","0","0","0","0","0","0","0","0","0","0"
"99","Grand Canyon University","Phoenix","AZ","85017","www.gcu.edu","33.512172","-112.129917","0.5757",3,"11","NULL",30945,"0","0","0","1","2","1","1","0","2","2","2","2"
"100","International Academy of Hair Design","Tempe","AZ","85282-6730","www.intlacademyaz.com/","33.38145","-111.940071","NULL",3,"12","NULL",NA,"0","0","0","0","0","0","0","0","0","0","0","0"
"101","GateWay Community College","Phoenix","AZ","85034","www.gatewaycc.edu","33.4495","-111.996527","NULL",1,"11","NULL",12818,"0","0","0","0","0","0","0","0","0","0","0","0"
"102","Mesa Community College","Mesa","AZ","85202","www.mesacc.edu","33.391256","-111.871494","NULL",1,"11","NULL",12575,"0","0","0","0","0","0","0","0","0","0","0","0"
"103","ITT Technical Institute-Tucson","Tucson","AZ","85704-5829","www.itt-tech.edu","32.297261","-110.997501","0.9358",3,"21","NULL",27071,"0","0","0","1","0","0","0","0","0","0","1","0"
"104","ITT Technical Institute-Tempe","Tempe","AZ","85282","www.itt-tech.edu","33.380355","-111.969169","0.9191",3,"12","NULL",27722,"0","0","0","1","0","0","0","0","0","0","1","0"
"105","Mohave Community College","Kingman","AZ","86409-1238","www.mohave.edu","35.270737","-114.030244","NULL",1,"41","NULL",12238,"0","0","0","0","0","0","0","0","0","0","0","0"
"106","Universal Technical Institute of Arizona Inc-Motorcycle Mechanics Institute Division","Phoenix","AZ","85027","www.uti.edu/","33.684428","-112.121336","NULL",3,"11","NULL",NA,"0","0","0","0","0","0","0","0","0","0","0","0"
"107","Dine College","Tsaile","AZ","86556","www.dinecollege.edu","36.293328","-109.21684","NULL",1,"43","NULL",11610,"0","0","0","0","1","0","0","0","0","0","0","0"
"108","Northern Arizona University","Flagstaff","AZ","86011-4092","nau.edu/","35.180095","-111.657653","0.8099",1,"13","NULL",22561,"0","1","0","1","2","2","2","1","2","2","2","1"
"109","Northland Pioneer College","Holbrook","AZ","86025-0610","www.npc.edu","34.922221","-110.1316","NULL",1,"41","NULL",13969,"0","0","0","0","0","0","0","0","0","0","0","0"
"110","Ottawa University-Phoenix","Phoenix","AZ","85021","www.ottawa.edu","33.57172","-112.113301","NULL",2,"11","NULL",NA,"0","0","0","1","2","0","1","2","2","0","2","2"
"111","Phoenix College","Phoenix","AZ","85013","www.phoenixcollege.edu","33.481361","-112.088293","NULL",1,"11","NULL",12413,"0","0","0","0","0","0","0","0","0","0","0","0"
"112","Cortiva Institute-Scottsdale","Scottsdale","AZ","85257","www.cortiva.com/","33.466554","-111.908433","NULL",3,"12","NULL",NA,"0","0","0","0","0","0","0","0","0","0","0","0"
"113","Pima Community College","Tucson","AZ","85709-1275","www.pima.edu","32.221737","-110.887033","NULL",1,"11","NULL",7295,"0","0","0","0","0","0","0","0","0","0","0","0"
"114","Pima Medical Institute-Tucson","Tucson","AZ","85716","pmi.edu","32.250448","-110.921306","NULL",3,"11","NULL",NA,"0","0","0","0","0","0","0","0","0","0","0","0"
"115","Pima Medical Institute-Albuquerque","Albuquerque","NM","87110","pmi.edu","35.10488","-106.594381","NULL",3,"11","NULL",NA,"0","0","0","0","0","0","0","0","0","0","0","0"
"116","Prescott College","Prescott","AZ","86301","www.prescott.edu","34.5445","-112.476509","0.6873",2,"13","1073",41256,"2","2","2","0","2","0","2","0","2","2","2","0"
"117","Refrigeration School Inc","Phoenix","AZ","85034-1816","refrigerationschool.com","33.448692","-111.989357","NULL",3,"11","NULL",NA,"0","0","0","0","0","0","0","0","0","0","0","0"
"118","Rio Salado College","Tempe","AZ","85281","www.rio.maricopa.edu","33.413138","-111.975201","NULL",1,"12","NULL",11855,"0","0","0","0","0","0","0","0","0","0","0","0"
"119","Roberto-Venn School of Luthiery","Phoenix","AZ","85007","www.roberto-venn.com","33.45489","-112.086161","NULL",3,"11","NULL",NA,"0","0","0","0","0","0","0","0","0","0","0","0"
"120","Hair Academy of Safford","Safford","AZ","85546","hairacademysafford.com","32.835302","-109.727696","NULL",3,"41","NULL",NA,"0","0","0","0","0","0","0","0","0","0","0","0"
"121","Scottsdale Community College","Scottsdale","AZ","85256","www.scottsdalecc.edu","33.509489","-111.887298","NULL",1,"41","NULL",12461,"0","0","0","0","0","0","0","0","0","0","0","0"
"122","South Mountain Community College","Phoenix","AZ","85042","www.southmountaincc.edu","33.381001","-112.057515","NULL",1,"11","NULL",12324,"0","0","0","0","0","0","0","0","0","0","0","0"
"123","Arizona Christian University","Phoenix","AZ","85032-7097","www.arizonachristian.edu","33.595117","-112.026211","0.5673",2,"11","988",33945,"0","0","0","0","1","0","1","0","1","1","1","0"
"124","Tucson College","Tucson","AZ","85711","www.tucsoncollege.edu","32.22205","-110.883181","NULL",3,"11","NULL",NA,"0","0","0","0","0","0","0","0","0","0","0","0"
"125","Universal Technical Institute of Arizona Inc","Avondale","AZ","85323","www.uti.edu","33.453533","-112.289693","NULL",3,"22","NULL",NA,"0","0","0","0","0","0","0","0","0","0","0","0"
"126","Western International University","Tempe","AZ","85282","www.west.edu","33.403625","-111.964182","NULL",3,"12","NULL",9800,"0","0","0","2","0","0","0","0","0","2","2","0"
"127","Empire Beauty School-NW Phoenix","Phoenix","AZ","85051","www.empire.edu","33.538093","-112.118168","NULL",3,"11","NULL",NA,"0","0","0","0","0","0","0","0","0","0","0","0"
"128","Yavapai College","Prescott","AZ","86301","www.YC.EDU","34.547512","-112.454156","NULL",1,"13","NULL",11321,"0","0","0","0","0","0","0","0","0","0","0","0"
"129","University of Arkansas at Little Rock","Little Rock","AR","72204","ualr.edu/www/","34.726644","-92.341835","0.5928",1,"12","1048",22521,"0","0","0","1","1","1","1","2","2","1","2","1"
"130","University of Arkansas for Medical Sciences","Little Rock","AR","72205-7199","www.uams.edu","34.749718","-92.320945","NULL",1,"12","NULL",NA,"0","0","0","0","0","0","0","0","0","0","0","0"
"131","ABC Beauty College Inc","Arkadelphia","AR","71923","www.abc-beautycollege.com","34.12018","-93.080831","NULL",3,"32","NULL",NA,"0","0","0","0","0","0","0","0","0","0","0","0"
"132","Arkansas Baptist College","Little Rock","AR","72202-6068","www.arkansasbaptist.edu","34.734751","-92.290555","NULL",2,"12","NULL",19800,"0","0","0","0","0","0","0","0","0","0","2","0"
"133","Arkansas Beauty School-Little Rock","Little Rock","AR","72209","arkbeautyschool.com","34.669071","-92.334814","NULL",3,"12","NULL",NA,"0","0","0","0","0","0","0","0","0","0","0","0"
"134","Arkansas Beauty College","Russellville","AR","72801","www.arkansasbeautycollegersvlar.com/","35.278622","-93.13522","NULL",3,"33","NULL",NA,"0","0","0","0","0","0","0","0","0","0","0","0"
"135","Lyon College","Batesville","AR","72501","www.lyon.edu","35.778934","-91.628115","0.6142",2,"33","1109",33605,"0","0","0","1","1","0","1","1","1","1","1","1"
"136","Arkansas College of Barbering and Hair Design","North Little Rock","AR","72114","www.arkansascollegeofbarbering.com","34.753621","-92.266336","NULL",3,"13","NULL",NA,"0","0","0","0","0","0","0","0","0","0","0","0"
"137","Arthur's Beauty College Inc-Fort Smith","Fort Smith","AR","72901-3342","www.arthursbeautycollege.com","35.379955","-94.410967","NULL",3,"13","NULL",NA,"0","0","0","0","0","0","0","0","0","0","0","0"
"138","University of Arkansas","Fayetteville","AR","72701","www.uark.edu","36.06153","-94.178214","0.6204",1,"13","1155",20350,"1","1","1","1","1","1","1","1","1","1","2","1"
"139","University of Arkansas at Pine Bluff","Pine Bluff","AR","71601","www.uapb.edu","34.242192","-92.021263","0.3868",1,"13","886",15409,"1","1","0","1","1","0","1","1","1","1","1","1"
"140","Arkansas State University-Beebe","Beebe","AR","72012-1000","www.asub.edu","35.074512","-91.896165","NULL",1,"31","NULL",12278,"0","0","0","0","0","0","0","0","0","0","0","0"
"141","Arkansas State University-Main Campus","Jonesboro","AR","72401","www2.astate.edu","35.842779","-90.680478","0.7239",1,"13","1088",19359,"1","2","0","1","1","1","1","1","1","1","2","1"
"142","Arkansas Tech University","Russellville","AR","72801-2222","www.atu.edu","35.295227","-93.13233","0.8626",1,"33","1010",16518,"1","1","0","1","2","1","1","1","1","1","1","1"
"143","University of Arkansas at Monticello","Monticello","AR","71656","www.uamont.edu/","33.589788","-91.812971","NULL",1,"33","NULL",16071,"1","1","0","0","1","0","1","1","1","1","1","1"
"144","Arthur's Beauty College Inc-Jacksonville","Jacksonville","AR","72076","arthursbeautycollege.com","34.8918","-92.102284","NULL",3,"21","NULL",NA,"0","0","0","0","0","0","0","0","0","0","0","0"
"145","Baptist Health College-Little Rock","Little Rock","AR","72210-2820","https://www.bhclr.edu","34.713115","-92.40692","0.6154",2,"12","990",24397,"0","0","0","0","0","0","0","0","0","0","0","0"
"146","Black River Technical College","Pocahontas","AR","72455","www.blackrivertech.edu","36.239793","-90.951033","NULL",1,"41","NULL",11865,"0","0","0","0","0","0","0","0","0","0","0","0"
"147","University of Central Arkansas","Conway","AR","72035-0001","www.uca.edu","35.078196","-92.45931","0.9426",1,"13","1049",18354,"0","1","0","1","1","0","1","1","1","1","1","1"
"148","Central Baptist College","Conway","AR","72034","www.cbc.edu","35.084574","-92.444102","0.5697",2,"13","985",21616,"0","0","0","0","1","0","1","0","1","0","1","0"
"149","Cossatot Community College of the University of Arkansas","De Queen","AR","71832","www.cccua.edu/","34.043389","-94.3673","NULL",1,"41","NULL",11917,"0","0","0","0","0","0","0","0","0","0","0","0"
"150","Crowley's Ridge College","Paragould","AR","72450","www.crc.edu/","36.066239","-90.58482","NULL",2,"41","NULL",18743,"0","0","0","0","1","0","0","0","0","0","1","0"
"151","Crowley's Ridge Technical Institute","Forrest City","AR","72335-0925","www.crti.tec.ar.us","35.041908","-90.767807","NULL",1,"32","NULL",7901,"0","0","0","0","0","0","0","0","0","0","0","0"
"152","East Arkansas Community College","Forrest City","AR","72335-2204","WWW.EACC.EDU","35.039673","-90.767445","NULL",1,"32","NULL",9084,"0","0","0","0","0","0","0","0","0","0","0","0"
"153","Eastern College of Health Vocations-Little Rock","Little Rock","AR","72205","www.easterncollege.edu","34.75126","-92.341981","NULL",3,"12","NULL",NA,"0","0","0","0","0","0","0","0","0","0","0","0"
"154","Imagine-Paul Mitchell Partner School","North Little Rock","AR","72117","www.pmlittlerock.com","34.791306","-92.221304","NULL",3,"13","NULL",NA,"0","0","0","0","0","0","0","0","0","0","0","0"
"155","National Park Community College","Hot Springs","AR","71913","www.np.edu","34.512731","-93.117111","NULL",1,"23","NULL",13433,"0","0","0","0","0","0","0","0","0","0","0","0"
"156","University of Arkansas Community College-Batesville","Batesville","AR","72503-3350","www.uaccb.edu","35.79293","-91.616123","NULL",1,"33","NULL",8037,"0","0","0","0","0","0","0","0","0","0","0","0"
"157","Harding University","Searcy","AR","72143","www.harding.edu","35.249605","-91.729008","0.9912",2,"32","1131",26484,"0","0","0","1","1","1","1","1","1","1","2","1"
"158","Henderson State University","Arkadelphia","AR","71999-0001","www.hsu.edu","34.127792","-93.060313","0.6278",1,"32","989",18679,"0","0","0","1","1","1","1","1","1","1","1","1"
"159","Hendrix College","Conway","AR","72032-3080","www.hendrix.edu","35.09972","-92.442021","0.8282",2,"13","1244",52536,"0","1","0","1","0","0","1","1","1","1","1","1"
"160","Hot Springs Beauty College","Hot Springs","AR","71901","hotspringsbeautycollege.com","34.496287","-93.038381","NULL",3,"13","NULL",NA,"0","0","0","0","0","0","0","0","0","0","0","0"
"161","Jefferson Regional Medical Center School of Nursing","Pine Bluff","AR","71603","www.jrmc.org","34.187831","-92.018045","NULL",2,"13","NULL",NA,"0","0","0","0","0","0","0","0","0","0","0","0"
"162","John Brown University","Siloam Springs","AR","72761","www.jbu.edu","36.191077","-94.559088","0.6978",2,"32","NULL",34776,"0","0","0","0","1","1","1","1","1","1","2","1"
"163","Lees School of Cosmetology","North  Little Rock","AR","72114-3800","www.leesschool.com","34.781993","-92.296729","NULL",3,"13","NULL",NA,"0","0","0","0","0","0","0","0","0","0","0","0"
"164","Career Academy of Hair Design","Springdale","AR","72764-7128","www.beautynwa.com","36.16757","-94.131834","NULL",3,"13","NULL",NA,"0","0","0","0","0","0","0","0","0","0","0","0"
"165","Academy of Salon and Spa","Fort Smith","AR","72901","www.academysalonspa.com","35.380891","-94.416327","NULL",3,"13","NULL",NA,"0","0","0","0","0","0","0","0","0","0","0","0"
"166","Arkansas State University Mid-South","West Memphis","AR","72301-3829","www.midsouthcc.edu","35.145736","-90.22285","NULL",1,"21","NULL",14258,"0","0","0","0","0","0","0","0","0","0","0","0"
"167","Arkansas Northeastern College","Blytheville","AR","72316-1109","www.anc.edu","35.897362","-89.922491","NULL",1,"41","NULL",13646,"0","0","0","0","0","0","0","0","0","0","0","0"
"168","Margaret's Hair Academy Inc","Monticello","AR","71655","margarethairacademy.com","33.629169","-91.7887","NULL",3,"33","NULL",NA,"0","0","0","0","0","0","0","0","0","0","0","0"
"169","New Tyler Barber College Inc","North Little Rock","AR","72114-4973","newtylerbarbercollege.com","34.759076","-92.254108","NULL",3,"13","NULL",NA,"0","0","0","0","0","0","0","0","0","0","0","0"
"170","North Arkansas College","Harrison","AR","72601-5508","www.northark.edu","36.220528","-93.087317","NULL",1,"33","NULL",9482,"0","0","0","0","0","0","0","0","0","0","0","0"
"171","Northwest Technical Institute","Springdale","AR","72764","www.nwti.edu","36.178617","-94.116433","NULL",1,"13","NULL",8533,"0","0","0","0","0","0","0","0","0","0","0","0"
"172","Ouachita Baptist University","Arkadelphia","AR","71998-0001","www.obu.edu","34.125045","-93.052442","0.7061",2,"32","1112",32560,"0","0","0","1","1","1","1","1","1","1","1","1"
"173","College of the Ouachitas","Malvern","AR","72104-0816","www.coto.edu","34.378745","-92.821416","NULL",1,"31","NULL",12227,"0","0","0","0","0","0","0","0","0","0","0","0"
"174","Ozarka College","Melbourne","AR","72556-0010","www.ozarka.edu","36.053031","-91.896355","NULL",1,"43","NULL",11592,"0","0","0","0","0","0","0","0","0","0","0","0"
"175","University of the Ozarks","Clarksville","AR","72830","www.ozarks.edu","35.477785","-93.467924","0.8892",2,"33","1061",35438,"0","1","0","0","1","0","1","1","1","1","1","1"
"176","University of Arkansas Community College-Morrilton","Morrilton","AR","72110","www.uaccm.edu","35.172136","-92.728507","0.6181",1,"32","930",10722,"0","0","0","0","0","0","0","0","0","0","0","0"
"177","Philander Smith College","Little Rock","AR","72202-3799","www.philander.edu","34.73666","-92.28242","NULL",2,"12","NULL",25061,"0","0","0","1","1","0","1","1","1","1","1","0"
"178","Phillips Community College of the University of Arkansas","Helena","AR","72342-0785","www.pccua.edu","34.544976","-90.617745","NULL",1,"41","NULL",9886,"0","0","0","0","0","0","0","0","0","0","0","0"
"179","Southeast Arkansas College","Pine Bluff","AR","71603","www.seark.edu","34.209797","-92.024731","NULL",1,"13","NULL",8507,"0","0","0","0","0","0","0","0","0","0","0","0"
"180","Professional Cosmetology Education Center","El Dorado","AR","71730-4009","www.pcec.edu","33.215124","-92.663131","NULL",3,"33","NULL",NA,"0","0","0","0","0","0","0","0","0","0","0","0"
"181","Pulaski Technical College","North Little Rock","AR","72118-3347","www.pulaskitech.edu","34.78243","-92.299729","NULL",1,"13","NULL",15082,"0","0","0","0","0","0","0","0","0","0","0","0"
"182","University of Arkansas Community College-Hope","Hope","AR","71801","www.uacch.edu","33.64791","-93.584528","NULL",1,"32","NULL",14467,"0","0","0","0","0","0","0","0","0","0","0","0"
"183","Rich Mountain Community College","Mena","AR","71953","www.rmcc.edu","34.590793","-94.2197","NULL",1,"33","NULL",12005,"0","0","0","0","0","0","0","0","0","0","0","0"
"184","Paul Mitchell the School-Arkansas","Fayetteville","AR","72703","www.pmtsarkansas.com","36.12681","-94.154191","NULL",3,"13","NULL",NA,"0","0","0","0","0","0","0","0","0","0","0","0"
"185","Searcy Beauty College","Searcy","AR","72143","searcybeautycollege.com/","35.237723","-91.73454","NULL",3,"32","NULL",NA,"0","0","0","0","0","0","0","0","0","0","0","0"
"186","Shorter College","N Little Rock","AR","72114","www.shortercollege.org/","34.75933","-92.261331","NULL",2,"13","NULL",18205,"0","0","0","0","0","0","0","0","0","0","0","0"
"187","Williams Baptist College","Walnut Ridge","AR","72476","www.wbcoll.edu","36.126825","-90.939876","0.7049",2,"42","983",23161,"0","0","0","1","1","0","1","0","1","0","1","1"
"188","South Arkansas Community College","El Dorado","AR","71731-7010","www.southark.edu","33.209446","-92.666087","NULL",1,"33","NULL",15979,"0","0","0","0","0","0","0","0","0","0","0","0"
"189","Southern Arkansas University Main Campus","Magnolia","AR","71753","WWW.SAUMAG.EDU","33.291195","-93.235087","0.7142",1,"33","989",18887,"2","0","0","1","2","0","1","1","1","1","1","1"
"190","Southern Arkansas University Tech","Camden","AR","71701-1906","www.sautech.edu","33.63037","-92.719498","NULL",1,"42","NULL",15573,"0","0","0","0","0","0","0","0","0","0","0","0"
"191","Velvatex College of Beauty Culture","Little Rock","AR","72202-5452","www.velvatexcollege.com","34.735724","-92.289758","NULL",3,"12","NULL",NA,"0","0","0","0","0","0","0","0","0","0","0","0"
"192","University of Arkansas-Fort Smith","Fort Smith","AR","72913-3649","uafs.edu/","35.385345","-94.374073","0.5629",1,"13","NULL",13983,"0","0","0","1","1","0","1","1","1","0","1","1"
"193","Academy of Art University","San Francisco","CA","94105","www.academyart.edu","37.787748","-122.400686","NULL",3,"11","NULL",35919,"0","0","2","2","2","0","0","0","0","0","0","0"
"194","ITT Technical Institute-Rancho Cordova","Rancho Cordova","CA","95670-6034","www.itt-tech.edu","38.59172","-121.281506","0.8599",3,"13","NULL",27550,"0","0","0","1","0","0","0","0","0","0","1","0"
"195","Academy of Chinese Culture and Health Sciences","Oakland","CA","94612","www.acchs.edu","37.806662","-122.272733","NULL",2,"11","NULL",NA,"0","0","0","0","0","0","0","0","0","0","0","0"
"196","The Academy of Radio and TV Broadcasting","Huntington Beach","CA","92647","WWW.ARBRADIO.COM","33.728895","-117.987666","NULL",3,"21","NULL",NA,"0","0","0","0","0","0","0","0","0","0","0","0"
"197","Avalon School of Cosmetology-Alameda","Alameda","CA","94501","avalon.edu/locations/alameda-ca/","37.764203","-122.243566","NULL",3,"21","NULL",NA,"0","0","0","0","0","0","0","0","0","0","0","0"
"198","College of Alameda","Alameda","CA","94501","www.peralta.edu","37.78239","-122.279261","NULL",1,"21","NULL",10898,"0","0","0","0","0","0","0","0","0","0","0","0"
"199","Allan Hancock College","Santa Maria","CA","93454-6399","www.hancockcollege.edu/","34.942979","-120.421486","NULL",1,"13","NULL",11111,"0","0","0","0","0","0","0","0","0","0","0","0"
"200","American Academy of Dramatic Arts-Los Angeles","Los Angeles","CA","90028","WWW.AADA.EDU","34.095315","-118.344097","0.2016",2,"11","NULL",51614,"0","0","0","0","0","0","0","0","0","0","0","0"
"201","American Baptist Seminary of the West","Berkeley","CA","94704-3029","www.absw.edu","37.865252","-122.256149","NULL",2,"12","NULL",NA,"0","0","0","0","0","0","0","0","0","0","0","0"
"202","American Film Institute Conservatory","Los Angeles","CA","90027-1625","www.AFI.com","34.10846","-118.309989","NULL",2,"11","NULL",NA,"0","0","0","0","0","0","0","0","0","0","0","0"
"203","American Beauty College","West Covina","CA","91790","www.american-beauty-college.com","33.884391","-118.125036","NULL",3,"21","NULL",NA,"0","0","0","0","0","0","0","0","0","0","0","0"
"204","American Career College-Los Angeles","Los Angeles","CA","90004","americancareercollege.edu/","34.079236","-118.292282","NULL",3,"11","NULL",NA,"0","0","0","0","0","0","0","0","0","0","0","0"
"205","American Conservatory Theater","San Francisco","CA","94108-5834","www.act-sf.org","37.787326","-122.404945","NULL",2,"11","NULL",NA,"0","0","0","0","0","0","0","0","0","0","0","0"
"206","American River College","Sacramento","CA","95841-4286","www.arc.losrios.edu/","38.649734","-121.346012","NULL",1,"21","NULL",12513,"0","0","0","0","0","0","0","0","0","0","0","0"
"207","Antelope Valley College","Lancaster","CA","93536-5426","www.avc.edu","34.676207","-118.186166","NULL",1,"21","NULL",11616,"0","0","0","0","0","0","0","0","0","0","0","0"
"208","Art Center College of Design","Pasadena","CA","91103","www.artcenter.edu","34.170844","-118.186901","0.809",2,"12","NULL",57738,"0","0","0","0","0","0","0","0","0","0","0","0"
"209","Associated Technical College-Los Angeles","Los Angeles","CA","90017-1604","www.atcla.edu","34.055987","-118.27243","NULL",3,"11","NULL",NA,"0","0","0","0","0","0","0","0","0","0","0","0"
"210","Associated Technical College-San Diego","San Diego","CA","92101","www.associatedtechcollege.com","32.715658","-117.158203","NULL",3,"11","NULL",NA,"0","0","0","0","0","0","0","0","0","0","0","0"
"211","Azusa Pacific University","Azusa","CA","91702-7000","www.apu.edu","34.130865","-117.88795","0.8183",2,"21","1037",45472,"0","0","0","2","1","0","1","1","1","1","2","1"
"212","Bakersfield College","Bakersfield","CA","93305-1299","www.bakersfieldcollege.edu/","35.4108","-118.973491","NULL",1,"11","NULL",10060,"0","0","0","0","0","0","0","0","0","0","0","0"
"213","Barstow Community College","Barstow","CA","92311","www.barstow.edu","34.871451","-117.02523","NULL",1,"32","NULL",14455,"0","0","0","0","0","0","0","0","0","0","0","0"
"214","Bellus Academy-National City","National City","CA","91950","www.bellusacademy.edu","32.676762","-117.090235","NULL",3,"21","NULL",NA,"0","0","0","0","0","0","0","0","0","0","0","0"
"215","Bethesda University","Anaheim","CA","92801","www.buc.edu","33.842295","-117.941323","0.6686",2,"11","NULL",13885,"0","0","0","1","1","0","0","0","0","0","1","0"
"216","Biola University","La Mirada","CA","90639-0001","www.biola.edu","33.904823","-118.017342","0.754",2,"21","1122",46162,"0","1","0","1","1","1","1","1","1","1","1","1"
"217","Brooks Institute","Ventura","CA","93001","www.brooks.edu","34.33851","-119.295231","0.9912",3,"21","NULL",32323,"0","0","0","0","0","0","0","0","0","0","0","0"
"218","Brownson Technical School","Anaheim","CA","92805","www.brownson.edu","33.819","-117.906409","NULL",3,"11","NULL",NA,"0","0","0","0","0","0","0","0","0","0","0","0"
"219","Bryan University","Los Angeles","CA","90010","www.bryancollege.edu","34.061406","-118.302882","NULL",3,"11","NULL",23190,"0","0","0","0","0","0","0","0","0","0","0","0"
"220","Butte College","Oroville","CA","95965-8399","www.butte.edu","39.649116","-121.644691","NULL",1,"42","NULL",11324,"0","0","0","0","0","0","0","0","0","0","0","0"
"221","Phillips Graduate Institute","Chatsworth","CA","91311","pgi.edu","34.24203","-118.567631","NULL",2,"11","NULL",NA,"0","0","0","0","0","0","0","0","0","0","0","0"
"222","California Institute of Integral Studies","San Francisco","CA","94103","www.ciis.edu","37.774768","-122.416537","NULL",2,"11","NULL",NA,"0","0","0","0","0","0","0","0","0","0","0","0"
"223","Cabrillo College","Aptos","CA","95003","www.cabrillo.edu","36.9891","-121.927926","NULL",1,"22","NULL",14153,"0","0","0","0","0","0","0","0","0","0","0","0"
"224","California Baptist University","Riverside","CA","92504-3297","www.calbaptist.edu","33.928569","-117.42587","0.7967",2,"11","976",39523,"0","1","0","2","2","1","1","1","2","2","2","1"
"225","California College of the Arts","San Francisco","CA","94107-2247","www.cca.edu","37.76723","-122.399941","0.6369",2,"11","NULL",55398,"0","0","1","0","0","0","0","0","0","0","0","0"
"226","University of California-Hastings College of Law","San Francisco","CA","94102-4978","www.uchastings.edu","37.780718","-122.415395","NULL",1,"11","NULL",NA,"0","0","0","0","0","0","0","0","0","0","0","0"
"227","California Institute of Technology","Pasadena","CA","91125","www.caltech.edu","34.139275","-118.12574","0.0883",2,"12","1545",58755,"0","0","0","1","0","1","1","1","0","1","1","1"
"228","California Lutheran University","Thousand Oaks","CA","91360-2787","www.callutheran.edu/","34.225551","-118.879467","0.6097",2,"12","1109",50425,"0","1","0","1","0","1","1","1","1","1","2","1"
"229","California Polytechnic State University-San Luis Obispo","San Luis Obispo","CA","93407","calpoly.edu","35.29889","-120.65856","0.3089",1,"23","1234",24218,"1","1","1","1","1","1","1","1","1","1","1","1"
"230","Alliant International University-San Diego","San Diego","CA","92131","www.alliant.edu","32.897056","-117.094398","0.3855",2,"11","NULL",30066,"0","0","0","0","0","0","0","0","1","1","2","0"
"231","California State University-Bakersfield","Bakersfield","CA","93311-1099","www.csub.edu","35.350005","-119.104711","0.706",1,"11","NULL",15975,"0","1","0","1","1","1","1","1","1","1","1","1"
"232","California State University-Stanislaus","Turlock","CA","95382-0299","www.csustan.edu","37.52577","-120.852511","0.7272",1,"23","NULL",16190,"1","0","0","1","1","0","1","1","1","1","1","1"
"233","California State University-San Bernardino","San Bernardino","CA","92407-2397","www.csusb.edu","34.182987","-117.322508","0.8445",1,"12","884",16206,"0","1","0","1","1","1","1","1","1","1","1","1"
"234","California State Polytechnic University-Pomona","Pomona","CA","91768","www.cpp.edu","34.054273","-117.819019","0.5187",1,"21","1074",19042,"1","0","1","1","1","1","1","1","1","1","1","1"
"235","California State University-Chico","Chico","CA","95929-0150","www.csuchico.edu","39.728003","-121.846333","0.7096",1,"13","996",21715,"1","1","0","1","1","1","1","1","1","2","1","1"
"236","California State University-Dominguez Hills","Carson","CA","90747-0005","www.csudh.edu","33.86524","-118.259316","0.4234",1,"13","NULL",12399,"0","0","0","1","1","0","1","1","1","1","1","1"
"237","California State University-Fresno","Fresno","CA","93740","www.csufresno.edu","36.814477","-119.748258","0.594",1,"11","910",16316,"1","1","0","1","1","1","1","1","1","1","1","1"
"238","California State University-Fullerton","Fullerton","CA","92831-3599","www.fullerton.edu","33.883627","-117.885349","0.4447",1,"21","1021",15627,"0","0","0","1","1","1","1","1","1","1","1","1"
"239","California State University-East Bay","Hayward","CA","94542","www.csueastbay.edu","37.65707","-122.058073","0.7031",1,"12","NULL",19793,"0","1","0","1","0","1","1","1","1","1","2","1"
"240","California State University-Long Beach","Long Beach","CA","90840-0115","www.csulb.edu","33.782752","-118.1123","0.3546",1,"11","1054",17779,"0","1","0","1","1","1","1","1","1","1","1","1"
"241","California State University-Los Angeles","Los Angeles","CA","90032","www.calstatela.edu","34.066927","-118.168965","0.6107",1,"11","871",13479,"1","0","0","1","1","1","1","1","1","1","1","1"
"242","California State University-Northridge","Northridge","CA","91330","www.csun.edu","34.23671","-118.526817","0.5286",1,"11","914",18665,"0","0","0","1","1","1","1","1","1","1","1","1"
"243","California State University-Sacramento","Sacramento","CA","95819-2694","www.csus.edu","38.55745","-121.42194","0.7265",1,"11","937",18241,"0","1","0","1","1","1","1","1","1","1","1","1"
"244","University of California-Berkeley","Berkeley","CA","94720","www.berkeley.edu","37.871969","-122.260423","0.1602",1,"12","1382",33020,"0","1","1","1","0","1","1","1","1","1","1","1"
"245","University of California-Davis","Davis","CA","95616-8678","www.ucdavis.edu","38.539895","-121.751958","0.4037",1,"23","1226",32638,"1","1","1","1","1","1","1","1","1","1","1","1"
"246","University of California-Irvine","Irvine","CA","92697","www.uci.edu/","33.648434","-117.841248","0.3742",1,"12","1168",29759,"0","1","1","1","1","1","1","1","1","1","1","1"
"247","University of California-Los Angeles","Los Angeles","CA","90095-1405","www.ucla.edu/","34.068892","-118.443901","0.1856",1,"11","1330",32074,"0","1","1","1","0","1","1","1","1","1","1","1"
"248","University of California-Riverside","Riverside","CA","92521","WWW.UCR.EDU","33.97588","-117.331098","0.5829",1,"11","1128",30174,"0","1","0","1","0","1","1","1","1","1","1","1"
"249","University of California-San Diego","La Jolla","CA","92093","www.ucsd.edu","32.876598","-117.237793","0.3329",1,"11","1313",30092,"0","1","0","1","1","1","1","1","1","1","1","1"
"250","University of California-San Francisco","San Francisco","CA","94143-0244","www.ucsf.edu","37.762736","-122.458049","NULL",1,"11","NULL",NA,"0","0","0","0","0","0","0","0","0","0","0","0"
"251","University of California-Santa Barbara","Santa Barbara","CA","93106","www.ucsb.edu","34.416281","-119.846404","0.3634",1,"22","1253",33826,"0","1","0","1","0","1","1","1","1","1","1","1"
"252","University of California-Santa Cruz","Santa Cruz","CA","95064-1011","www.ucsc.edu/","36.997258","-122.067993","0.5572",1,"13","1149",33036,"1","1","0","1","1","1","1","1","1","1","1","1"
"253","Sofia University","Palo Alto","CA","94303","www.sofia.edu","37.430325","-122.10866","NULL",3,"13","NULL",NA,"0","0","0","0","0","0","0","0","0","0","0","0"
"254","California Beauty School","Modesto","CA","95354","www.calbeautycollege.edu","37.645217","-120.99689","NULL",3,"12","NULL",NA,"0","0","0","0","0","0","0","0","0","0","0","0"
"255","California Christian College","Fresno","CA","93727","www.calchristiancollege.edu","36.75031","-119.711208","NULL",2,"11","NULL",24405,"0","0","0","0","0","0","0","0","0","0","0","0"
"256","Le Cordon Bleu College of Culinary Arts-San Francisco","San Francisco","CA","94103","www.caculinary.edu","37.765415","-122.402643","NULL",3,"11","NULL",21571,"0","0","0","0","0","0","0","0","0","0","0","0"
"257","California Hair Design Academy","La Mesa","CA","91941-5055","chdaschools.com","32.765221","-117.024261","NULL",3,"21","NULL",NA,"0","0","0","0","0","0","0","0","0","0","0","0"
"258","California Institute of the Arts","Valencia","CA","91355-2397","www.calarts.edu","34.393337","-118.567303","0.2442",2,"21","NULL",57704,"0","0","0","0","0","0","0","0","0","0","0","0"
"259","The California Maritime Academy","Vallejo","CA","94590","https://www.csum.edu","38.069061","-122.231551","0.667",1,"12","NULL",21102,"0","0","0","0","0","1","0","0","0","1","1","0"
"260","California Western School of Law","San Diego","CA","92101-3046","https://www.cwsl.edu","32.72194","-117.162597","NULL",2,"11","NULL",NA,"0","0","0","0","0","0","0","0","0","0","0","0"
"261","Canada College","Redwood City","CA","94061-1099","canadacollege.edu","37.447365","-122.265549","NULL",1,"21","NULL",8489,"0","0","0","0","0","0","0","0","0","0","0","0"
"262","College of the Canyons","Santa Clarita","CA","91355-1899","www.canyons.edu","34.403121","-118.569524","NULL",1,"21","NULL",10899,"0","0","0","0","0","0","0","0","0","0","0","0"
"263","Career Academy of Beauty","Garden Grove","CA","92845","CAofB.com","33.781018","-118.031697","NULL",3,"21","NULL",NA,"0","0","0","0","0","0","0","0","0","0","0","0"
"264","Casa Loma College-Van Nuys","Van Nuys","CA","91405","www.casalomacollege.edu","34.195438","-118.448335","0.875",2,"11","NULL",NA,"0","0","0","0","0","0","0","0","0","0","0","0"
"265","CET-San Diego","San Diego","CA","92102","www.cetweb.org/index.php","32.711715","-117.122496","NULL",2,"11","NULL",NA,"0","0","0","0","0","0","0","0","0","0","0","0"
"266","CET-Sobrato","San Jose","CA","95110","cetweb.org","37.322723","-121.88698","NULL",2,"11","NULL",NA,"0","0","0","0","0","0","0","0","0","0","0","0"
"267","CET-El Centro","El Centro","CA","92243","cetweb.org","32.790908","-115.549079","NULL",2,"13","NULL",NA,"0","0","0","0","0","0","0","0","0","0","0","0"
"268","CET-San Bernardino","San Bernardino","CA","92408","cetweb.org","34.075136","-117.268738","NULL",2,"12","NULL",NA,"0","0","0","0","0","0","0","0","0","0","0","0"
"269","CET-Watsonville","Watsonville","CA","95076","www.cetweb.org","36.931833","-121.767991","NULL",2,"13","NULL",NA,"0","0","0","0","0","0","0","0","0","0","0","0"
"270","CET-Salinas","Salinas","CA","93901","cetweb.org","36.671635","-121.652791","NULL",2,"12","NULL",NA,"0","0","0","0","0","0","0","0","0","0","0","0"
"271","Cerritos College","Norwalk","CA","90650-6298","www.cerritos.edu","33.88584","-118.097263","NULL",1,"21","NULL",13699,"0","0","0","0","0","0","0","0","0","0","0","0"
"272","Cerro Coso Community College","Ridgecrest","CA","93555-9571","cerrocoso.edu","35.567763","-117.667706","NULL",1,"41","NULL",12930,"0","0","0","0","0","0","0","0","0","0","0","0"
"273","Chabot College","Hayward","CA","94545","www.chabotcollege.edu","37.642513","-122.106969","NULL",1,"12","NULL",11971,"0","0","0","0","0","0","0","0","0","0","0","0"
"274","Chaffey College","Rancho Cucamonga","CA","91737-3002","www.chaffey.edu","34.14705","-117.573086","NULL",1,"21","NULL",14159,"0","0","0","0","0","0","0","0","0","0","0","0"
"275","Chapman University","Orange","CA","92866","www.chapman.edu","33.793678","-117.851481","0.4704",2,"12","1210",58948,"0","1","0","1","1","0","1","1","1","1","1","1"
"276","Charles R Drew University of Medicine and Science","Los Angeles","CA","90059","www.cdrewu.edu","33.925658","-118.242791","1",2,"21","NULL",29500,"0","0","0","0","0","0","0","0","0","0","0","0"
"277","Concordia University-Irvine","Irvine","CA","92612-3203","www.cui.edu","33.6535","-117.81063","0.8608",2,"12","1038",42472,"0","0","0","0","0","0","1","1","1","1","1","1"
"278","San Diego Christian College","Santee","CA","92071","www.sdcc.edu","32.84281","-116.978151","0.555",2,"21","992",39364,"0","0","0","0","0","0","1","0","1","0","2","1"
"279","Church Divinity School of the Pacific","Berkeley","CA","94709-1211","www.cdsp.edu","37.876169","-122.261391","NULL",2,"12","NULL",NA,"0","0","0","0","0","0","0","0","0","0","0","0"
"280","Citrus College","Glendora","CA","91741-1899","www.citruscollege.edu","34.135487","-117.885266","NULL",1,"21","NULL",9245,"0","0","0","0","0","0","0","0","0","0","0","0"
"281","Citrus Heights Beauty College","Citrus Heights","CA","95610-1410","www.chbeautycollege.com","38.71307","-121.289531","NULL",3,"21","NULL",NA,"0","0","0","0","0","0","0","0","0","0","0","0"
"282","City College of San Francisco","San Francisco","CA","94112-1898","www.ccsf.edu","37.725953","-122.451155","NULL",1,"11","NULL",9829,"0","0","0","0","0","0","0","0","0","0","0","0"
"283","Claremont Graduate University","Claremont","CA","91711-6160","www.cgu.edu","34.103778","-117.712394","NULL",2,"21","NULL",NA,"0","0","0","0","0","0","0","0","0","0","0","0"
"284","Claremont McKenna College","Claremont","CA","91711-6400","www.cmc.edu","34.102323","-117.706593","0.1077",2,"21","1419",62010,"0","1","0","1","0","1","1","1","1","1","1","1"
"285","Milan Institute-Visalia","Visalia","CA","93277","www.milaninstitute.edu","36.27164","-119.312151","NULL",3,"12","NULL",NA,"0","0","0","0","0","0","0","0","0","0","0","0"
"286","Clovis Adult Education","Clovis","CA","93611","www.clovisadultschool.com","36.836915","-119.69019","NULL",1,"21","NULL",NA,"0","0","0","0","0","0","0","0","0","0","0","0"
"287","Coastline Community College","Fountain Valley","CA","92708-2597","www.coastline.edu","33.609771","-117.861844","NULL",1,"13","NULL",11490,"0","0","0","0","0","0","0","0","0","0","0","0"
"288","Cogswell College","San Jose","CA","95134","www.cogswell.edu","37.413664","-121.940553","0.438",3,"11","NULL",28968,"0","0","0","0","0","1","0","0","0","0","1","0"
"289","Coleman University","San Diego","CA","92123-1506","www.coleman.edu","32.821962","-117.136493","NULL",2,"11","NULL",30799,"0","0","0","1","0","0","0","0","0","0","0","0"
"290","COBA Academy","Orange","CA","92866","www.coba.edu","33.788258","-117.85348","NULL",3,"12","NULL",NA,"0","0","0","0","0","0","0","0","0","0","0","0"
"291","Western University of Health Sciences","Pomona","CA","91766-1854","www.westernu.edu","34.058092","-117.747732","NULL",2,"21","NULL",NA,"0","0","0","0","0","0","0","0","0","0","0","0"
"292","Columbia College","Sonora","CA","95370","www.gocolumbia.edu/","38.030361","-120.387603","NULL",1,"41","NULL",11429,"0","0","0","0","0","0","0","0","0","0","0","0"
"293","Columbia College-Hollywood","Tarzana","CA","91356-1411","www.columbiacollege.edu","34.179596","-118.538394","0.7849",2,"11","NULL",31434,"0","0","0","0","0","0","0","0","0","0","0","0"
"294","El Camino College-Compton Center","Compton","CA","90221-5393","www.compton.edu","33.876665","-118.209186","NULL",1,"21","NULL",12611,"0","0","0","0","0","0","0","0","0","0","0","0"
"295","Contra Costa College","San Pablo","CA","94806-3195","www.contracosta.edu","37.968623","-122.342386","NULL",1,"21","NULL",15296,"0","0","0","0","0","0","0","0","0","0","0","0"
"296","Cosumnes River College","Sacramento","CA","95823-5799","www.crc.losrios.edu/","38.453836","-121.422971","NULL",1,"11","NULL",13514,"0","0","0","0","0","0","0","0","0","0","0","0"
"297","Crafton Hills College","Yucaipa","CA","92339-1799","www.craftonhills.edu","34.038513","-117.100826","NULL",1,"41","NULL",16809,"0","0","0","0","0","0","0","0","0","0","0","0"
"298","Cuesta College","San Luis Obispo","CA","93403-8106","www.cuesta.edu","35.329859","-120.741624","NULL",1,"23","NULL",16075,"0","0","0","0","0","0","0","0","0","0","0","0"
"299","Cuyamaca College","El Cajon","CA","92019","www.cuyamaca.edu","32.743072","-116.941044","NULL",1,"21","NULL",7891,"0","0","0","0","0","0","0","0","0","0","0","0"
"300","Cypress College","Cypress","CA","90630-5897","www.cypresscollege.edu","33.827625","-118.023889","NULL",1,"21","NULL",10774,"0","0","0","0","0","0","0","0","0","0","0","0"
"301","De Anza College","Cupertino","CA","95014","www.deanza.edu/","37.319176","-122.045365","NULL",1,"13","NULL",9855,"0","0","0","0","0","0","0","0","0","0","0","0"
"302","Marinello Schools of Beauty-Hemet","Hemet","CA","92545","www.marinello.com","33.746002","-116.999892","NULL",3,"22","NULL",NA,"0","0","0","0","0","0","0","0","0","0","0","0"
"303","International School of Beauty Inc","Palm Desert","CA","92260-2740","internationalschoolofbeauty.com","33.729555","-116.403928","NULL",3,"21","NULL",NA,"0","0","0","0","0","0","0","0","0","0","0","0"
"304","Dell'Arte International School of Physical Theatre","Blue Lake","CA","95525-0816","www.dellarte.com/school","40.880871","-123.988878","NULL",2,"41","NULL",NA,"0","0","0","0","0","0","0","0","0","0","0","0"
"305","College of the Desert","Palm Desert","CA","92260","collegeofthedesert.edu","33.732484","-116.38761","NULL",1,"21","NULL",14085,"0","0","0","0","0","0","0","0","0","0","0","0"
"306","Design Institute of San Diego","San Diego","CA","92121","www.disd.edu","32.731022","-117.149808","NULL",3,"11","NULL",25514,"0","0","0","0","0","0","0","0","0","0","0","0"
"307","Diablo Valley College","Pleasant Hill","CA","94523","www.dvc.edu","37.968035","-122.069861","NULL",1,"21","NULL",15145,"0","0","0","0","0","0","0","0","0","0","0","0"
"308","Dominican University of California","San Rafael","CA","94901-2298","www.dominican.edu","37.980014","-122.514654","0.8092",2,"13","1047",57579,"0","0","0","0","0","0","1","0","1","1","1","1"
"309","Dominican School of Philosophy & Theology","Berkeley","CA","94708-1816","www.dspt.edu","37.881099","-122.264612","NULL",2,"12","NULL",NA,"0","0","0","0","0","0","0","0","0","0","0","0"
"310","East Los Angeles College","Monterey Park","CA","91754-6099","www.elac.edu/","34.039205","-118.148384","NULL",1,"13","NULL",14085,"0","0","0","0","0","0","0","0","0","0","0","0"
"311","Marinello Schools of Beauty-Santa Clara","Santa Clara","CA","95050","www.marinello.com","37.347964","-121.947773","NULL",3,"12","NULL",NA,"0","0","0","0","0","0","0","0","0","0","0","0"
"312","El Camino Community College District","Torrance","CA","90506","www.elcamino.edu","33.885586","-118.326623","NULL",1,"21","NULL",14709,"0","0","0","0","0","0","0","0","0","0","0","0"
"313","Elegance International","Hollywood","CA","90028-6106","ei.edu/","34.062216","-118.338332","NULL",3,"11","NULL",NA,"0","0","0","0","0","0","0","0","0","0","0","0"
"314","Marinello Schools of Beauty-Burbank","Burbank","CA","91502","www.marinello.com","34.181902","-118.309749","NULL",3,"12","NULL",NA,"0","0","0","0","0","0","0","0","0","0","0","0"
"315","Marinello Schools of Beauty-Moreno Valley","Moreno Valley","CA","92553","www.marinello.com","33.915981","-117.228072","NULL",3,"21","NULL",NA,"0","0","0","0","0","0","0","0","0","0","0","0"
"316","Emperor's College of Traditional Oriental Medicine","Santa Monica","CA","90403","www.emperors.edu","34.0303","-118.4847","NULL",3,"13","NULL",NA,"0","0","0","0","0","0","0","0","0","0","0","0"
"317","Empire College","Santa Rosa","CA","95403-2126","www.empcol.edu","38.467789","-122.728642","NULL",3,"12","NULL",NA,"0","0","0","0","0","0","0","0","0","0","0","0"
"318","Evergreen Valley College","San Jose","CA","95135-1598","www.evc.edu","37.301736","-121.766686","NULL",1,"11","NULL",16468,"0","0","0","0","0","0","0","0","0","0","0","0"
"319","Fashion Institute of Design & Merchandising-Los Angeles","Los Angeles","CA","90015-1421","www.fidm.edu","34.044209","-118.25993","0.5178",3,"11","NULL",43876,"0","0","0","0","0","0","0","0","0","0","2","0"
"320","Fashion Institute of Design & Merchandising-San Francisco","San Francisco","CA","94108-5805","WWW.FIDM.EDU","37.786324","-122.406503","0.5388",3,"11","NULL",43339,"0","0","0","0","0","0","0","0","0","0","2","0"
"321","Fashion Institute of Design & Merchandising-Orange County","Irvine","CA","92614-5610","www.FIDM.edu","33.691963","-117.852254","0.6604",3,"12","NULL",40283,"0","0","0","0","0","0","0","0","0","0","2","0"
"322","Feather River Community College District","Quincy","CA","95971-9124","www.frc.edu","39.952395","-120.970877","NULL",1,"41","NULL",14478,"0","0","0","0","0","0","0","0","0","0","0","0"
"323","Federico Beauty Institute","Sacramento","CA","95834","federico.edu","38.64883","-121.497761","NULL",3,"21","NULL",NA,"0","0","0","0","0","0","0","0","0","0","0","0"
"324","Fielding Graduate University","Santa Barbara","CA","93105-3538","www.fielding.edu","34.42941","-119.717161","NULL",2,"13","NULL",NA,"0","0","0","0","0","0","0","0","0","0","0","0"
"325","Five Branches University","Santa Cruz","CA","95062","www.fivebranches.edu","36.964133","-121.998478","NULL",3,"22","NULL",NA,"0","0","0","0","0","0","0","0","0","0","0","0"
"326","Redondo Beach Beauty College","Redondo Beach","CA","90278-3111","RedondoBeachBeautyCollege.com","33.872914","-118.372315","NULL",3,"21","NULL",NA,"0","0","0","0","0","0","0","0","0","0","0","0"
"327","Foothill College","Los Altos Hills","CA","94022","www.foothill.edu","37.361104","-122.12833","NULL",1,"21","NULL",10016,"0","0","0","0","0","0","0","0","0","0","0","0"
"328","Franciscan School of Theology","Oceanside","CA","92057","www.fst.edu","33.23023","-117.319616","NULL",2,"21","NULL",NA,"0","0","0","0","0","0","0","0","0","0","0","0"
"329","Fredrick and Charles Beauty College","Eureka","CA","95501","www.fandcbeauty.com","40.798811","-124.165778","NULL",3,"33","NULL",NA,"0","0","0","0","0","0","0","0","0","0","0","0"
"330","Fresno City College","Fresno","CA","93741","www.fresnocitycollege.edu","36.767516","-119.795129","NULL",1,"11","NULL",10698,"0","0","0","0","0","0","0","0","0","0","0","0"
"331","Fresno Pacific University","Fresno","CA","93702-4709","www.fresno.edu","36.725279","-119.731953","0.6662",2,"11","1010",35508,"0","1","0","0","2","0","1","1","1","1","1","1"
"332","Fuller Theological Seminary in California","Pasadena","CA","91182","www.fuller.edu","34.14778","-118.140261","NULL",2,"12","NULL",NA,"0","0","0","0","0","0","0","0","0","0","0","0"
"333","Fullerton College","Fullerton","CA","92832-2095","www.fullcoll.edu","33.876794","-117.916986","NULL",1,"21","NULL",12424,"0","0","0","0","0","0","0","0","0","0","0","0"
"334","Gavilan College","Gilroy","CA","95020","www.gavilan.edu","36.973274","-121.568174","NULL",1,"23","NULL",11762,"0","0","0","0","0","0","0","0","0","0","0","0"
"335","Gemological Institute of America-Carlsbad","Carlsbad","CA","92008","www.gia.edu/gem-education","33.131313","-117.318765","NULL",2,"12","NULL",NA,"0","0","0","0","0","0","0","0","0","0","0","0"
"336","Glendale Community College","Glendale","CA","91208-2894","www.glendale.edu","34.166422","-118.228251","NULL",1,"12","NULL",9204,"0","0","0","0","0","0","0","0","0","0","0","0"
"337","Glendale Career College","Glendale","CA","91203","www.success.edu","34.1497","-118.254231","1",3,"12","NULL",NA,"0","0","0","0","0","0","0","0","0","0","0","0"
"338","Golden Gate University-San Francisco","San Francisco","CA","94105-2968","www.ggu.edu","37.789208","-122.398785","NULL",2,"11","NULL",NA,"0","0","0","2","0","0","0","0","0","0","2","0"
"339","Golden West College","Huntington Beach","CA","92647-2710","www.goldenwestcollege.edu","33.733775","-118.003036","NULL",1,"21","NULL",14857,"0","0","0","0","0","0","0","0","0","0","0","0"
"340","Graduate Theological Union","Berkeley","CA","94709","WWW.GTU.EDU","37.87554","-122.261847","NULL",2,"12","NULL",NA,"0","0","0","0","0","0","0","0","0","0","0","0"
"341","Grossmont College","El Cajon","CA","92020-1799","www.grossmont.edu/","32.816077","-117.007292","NULL",1,"21","NULL",7134,"0","0","0","0","0","0","0","0","0","0","0","0"
"342","Salon Success Academy-Riverside","Riverside","CA","92506","www.gotobeautyschool.com","33.94297","-117.391021","NULL",3,"11","NULL",NA,"0","0","0","0","0","0","0","0","0","0","0","0"
"343","Hartnell College","Salinas","CA","93901","www.hartnell.edu","36.673052","-121.668763","NULL",1,"12","NULL",14644,"0","0","0","0","0","0","0","0","0","0","0","0"
"344","Harvey Mudd College","Claremont","CA","91711","https://www.hmc.edu","34.106137","-117.710594","0.1425",2,"21","1500",63860,"0","0","0","1","0","1","1","1","1","1","0","0"
"345","Heald College-Rancho Cordova","Rancho Cordova","CA","95670","www.heald.edu","38.594382","-121.280086","NULL",3,"13","NULL",24844,"0","0","0","0","0","0","0","0","0","0","0","0"
"346","Heald College-Fresno","Fresno","CA","93704","www.heald.edu","36.822401","-119.795525","NULL",3,"11","NULL",23585,"0","0","0","0","0","0","0","0","0","0","0","0"
"347","Heald College-San Jose","Milpitas","CA","95035-8008","www.heald.edu","37.410897","-121.893911","NULL",3,"13","NULL",24515,"0","0","0","0","0","0","0","0","0","0","0","0"
"348","Heald College-San Francisco","San Francisco","CA","94103","www.heald.edu","37.782001","-122.404246","NULL",3,"11","NULL",25977,"0","0","0","0","0","0","0","0","0","0","0","0"
"349","Heald College-Concord","Concord","CA","94520-0522","www.Heald.edu","38.018938","-122.030047","NULL",3,"21","NULL",24996,"0","0","0","0","0","0","0","0","0","0","0","0"
"350","Hilltop Beauty School","Daly City","CA","94014","www.hilltopbeautyschool.com","37.705545","-122.461674","NULL",3,"21","NULL",NA,"0","0","0","0","0","0","0","0","0","0","0","0"
"351","Holy Names University","Oakland","CA","94619-1699","www.hnu.edu","37.802654","-122.18717","0.5706",2,"11","885",48896,"0","0","0","1","0","0","1","0","1","1","1","1"
"352","Pacifica Graduate Institute","Carpinteria","CA","93013","www.pacifica.edu","34.420464","-119.580264","NULL",3,"41","NULL",NA,"0","0","0","0","0","0","0","0","0","0","0","0"
"353","Humboldt State University","Arcata","CA","95521-8299","www.humboldt.edu","40.8741","-124.0814","0.7655",1,"33","986",22287,"1","1","0","1","1","1","1","1","1","1","1","1"
"354","Humphreys College-Stockton and Modesto Campuses","Stockton","CA","95207-3896","www.humphreys.edu","38.011051","-121.316401","NULL",2,"11","NULL",21405,"0","0","0","0","2","0","0","0","0","0","2","0"
"355","Imperial Valley College","Imperial","CA","92251-0158","www.imperial.edu","32.827563","-115.503903","NULL",1,"41","NULL",9529,"0","0","0","0","0","0","0","0","0","0","0","0"
"356","Institute for Business and Technology","Santa Clara","CA","95051-1303","www.ibttech.com","37.368642","-121.969541","NULL",3,"12","NULL",NA,"0","0","0","0","0","0","0","0","0","0","0","0"
"357","Interior Designers Institute","Newport Beach","CA","92660","idi.edu","33.641393","-117.865722","NULL",3,"13","NULL",NA,"0","0","0","0","0","0","0","0","0","0","0","0"
"358","Toni & Guy Hairdressing Academy-Santa Monica","Santa Monica","CA","90401","toniguy.com/academy/santa_monica_beauty_school/default.aspx","34.017466","-118.494898","NULL",3,"13","NULL",NA,"0","0","0","0","0","0","0","0","0","0","0","0"
"359","Irvine Valley College","Irvine","CA","92618-0301","www.ivc.edu","33.675079","-117.778575","NULL",1,"12","NULL",17407,"0","0","0","0","0","0","0","0","0","0","0","0"
"360","ITT Technical Institute-National City","National City","CA","91950","www.itt-tech.edu","32.66182","-117.106121","0.9448",3,"21","NULL",27856,"0","0","0","1","0","0","0","0","0","0","1","0"
"361","ITT Technical Institute-San Dimas","San Dimas","CA","91773","www.itt-tech.edu","34.102405","-117.818401","0.9382",3,"21","NULL",26928,"0","0","0","1","0","0","0","0","0","0","1","0"
"362","ITT Technical Institute-Orange","Orange","CA","92868","www.itt-tech.edu","33.77999","-117.896171","0.898",3,"12","NULL",27596,"0","0","0","1","0","0","0","0","0","0","1","0"
"363","Bellus Academy-El Cajon","El Cajon","CA","92021","www.bellusacademy.edu","32.794827","-116.945728","NULL",3,"21","NULL",NA,"0","0","0","0","0","0","0","0","0","0","0","0"
"364","John F. Kennedy University","Pleasant Hill","CA","94523-4817","www.jfku.edu","37.881794","-122.183972","NULL",2,"21","NULL",NA,"0","0","0","0","0","0","0","0","2","0","2","0"
"365","American Jewish University","Los Angeles","CA","90077-1519","www.aju.edu","34.128099","-118.471764","0.4146",2,"11","NULL",46869,"0","0","0","0","0","0","1","0","1","1","1","0"
"366","Reedley College","Reedley","CA","93654","www.reedleycollege.edu","36.605968","-119.45993","NULL",1,"32","NULL",9482,"0","0","0","0","0","0","0","0","0","0","0","0"
"367","Life Pacific College","San Dimas","CA","91773-3298","www.lifepacific.edu","34.089421","-117.830997","0.6633",2,"21","903",23926,"0","0","0","0","0","0","0","0","0","0","0","0"
"368","Argosy University-The Art Institute of California-San Diego","San Diego","CA","92108-4423","www.artinstitutes.edu/san-diego/","32.778278","-117.155395","NULL",3,"11","NULL",33175,"0","0","0","1","0","0","0","0","0","0","1","0"
"369","University of La Verne","La Verne","CA","91750-4401","www.laverne.edu/","34.10086","-117.772634","0.4656",2,"21","1014",47935,"0","1","0","1","1","0","1","1","1","1","2","1"
"370","Laguna College of Art and Design","Laguna Beach","CA","92651","www.lcad.edu","33.561448","-117.772564","0.5847",2,"41","NULL",42689,"0","0","0","0","0","0","0","0","0","0","0","0"
"371","Lake Tahoe Community College","South Lake Tahoe","CA","96150","www.ltcc.edu","38.926864","-119.971631","NULL",1,"41","NULL",10539,"0","0","0","0","0","0","0","0","0","0","0","0"
"372","Lancaster Beauty School","Lancaster","CA","93534","lancasterbeautyschool.com","34.695646","-118.148664","NULL",3,"21","NULL",NA,"0","0","0","0","0","0","0","0","0","0","0","0"
"373","Laney College","Oakland","CA","94607","www.laney.edu/wp/","37.796205","-122.262434","NULL",1,"11","NULL",13547,"0","0","0","0","0","0","0","0","0","0","0","0"
"374","Lassen Community College","Susanville","CA","96130","www.lassencollege.edu/","40.431327","-120.631169","NULL",1,"41","NULL",12285,"0","0","0","0","0","0","0","0","0","0","0","0"
"375","Life Chiropractic College West","Hayward","CA","94545-2800","www.lifewest.edu","37.637639","-122.11627","NULL",2,"12","NULL",NA,"0","0","0","0","0","0","0","0","0","0","0","0"
"376","Lincoln University","Oakland","CA","94612-2801","www.lincolnuca.edu","37.804788","-122.269745","NULL",2,"11","NULL",20725,"0","0","0","0","0","0","0","0","0","0","1","0"
"377","Southern California Seminary","El Cajon","CA","92019-1108","www.socalsem.edu","32.803259","-116.900531","NULL",2,"21","NULL",39574,"0","0","0","0","0","0","0","0","0","0","0","0"
"378","La Sierra University","Riverside","CA","92515-8247","www.lasierra.edu","33.908834","-117.497071","0.4064",2,"11","934",40702,"0","0","0","1","1","0","1","1","1","1","1","1"
"379","Loma Linda University","Loma Linda","CA","92350","www.llu.edu/index.html","34.050975","-117.261086","NULL",2,"21","NULL",NA,"0","1","0","0","0","0","0","0","0","0","0","0"
"380","Long Beach City College","Long Beach","CA","90808-1706","www.lbcc.edu","33.831741","-118.135819","NULL",1,"11","NULL",10824,"0","0","0","0","0","0","0","0","0","0","0","0"
"381","Southern California University of Health Sciences","Whittier","CA","90604","www.scuhs.edu","33.924638","-117.985447","NULL",2,"21","NULL",NA,"0","0","0","0","0","0","0","0","0","0","0","0"
"382","Los Angeles Harbor College","Wilmington","CA","90744-2397","www.lahc.edu","33.784201","-118.28186","NULL",1,"11","NULL",14646,"0","0","0","0","0","0","0","0","0","0","0","0"
"383","Los Angeles Pierce College","Woodland Hills","CA","91371-0002","www.piercecollege.edu","34.184184","-118.577194","NULL",1,"11","NULL",13772,"0","0","0","0","0","0","0","0","0","0","0","0"
"384","Los Angeles Southwest College","Los Angeles","CA","90047-4899","www.lasc.edu","33.929586","-118.304674","NULL",1,"21","NULL",12021,"0","0","0","0","0","0","0","0","0","0","0","0"
"385","Los Angeles Trade Technical College","Los Angeles","CA","90015-4181","www.lattc.edu","34.032623","-118.269113","NULL",1,"11","NULL",11479,"0","0","0","0","0","0","0","0","0","0","0","0"
"386","Los Angeles Valley College","Valley Glen","CA","91401-4096","www.lavc.edu","34.176406","-118.421446","NULL",1,"11","NULL",13485,"0","0","0","0","0","0","0","0","0","0","0","0"
"387","The Master's College and Seminary","Santa Clarita","CA","91321-1200","www.masters.edu","34.38214","-118.517422","0.7588",2,"21","1103",40755,"0","0","0","1","1","0","1","1","0","1","1","1"
"388","Los Angeles City College","Los Angeles","CA","90029","www.lacitycollege.edu/","34.087301","-118.292169","NULL",1,"11","NULL",11871,"0","0","0","0","0","0","0","0","0","0","0","0"
"389","Los Angeles County College of Nursing and Allied Health","Los Angeles","CA","90033-1084","dhs.org/wps/portal/CollegeofNursing","34.061605","-118.211418","NULL",1,"11","NULL",NA,"0","0","0","0","0","0","0","0","0","0","0","0"
"390","Los Angeles Mission College","Sylmar","CA","91342-3200","www.lamission.edu","34.314944","-118.419087","NULL",1,"11","NULL",13377,"0","0","0","0","0","0","0","0","0","0","0","0"
"391","Los Medanos College","Pittsburg","CA","94565","www.losmedanos.edu","38.005552","-121.861122","NULL",1,"21","NULL",14499,"0","0","0","0","0","0","0","0","0","0","0","0"
"392","Argosy University-The Art Institute of California-San Francisco","San Francisco","CA","94102-4908","www.artinstitutes.edu/san-francisco/","37.803958","-122.417185","NULL",3,"11","NULL",33324,"0","0","0","1","0","0","0","0","0","0","1","0"
"393","Loyola Marymount University","Los Angeles","CA","90045-2659","www.lmu.edu","33.970633","-118.415655","0.5271",2,"11","1218",57016,"0","1","0","1","0","1","1","1","1","1","1","1"
"394","Lu Ross Academy","Ventura","CA","93001-2729","www.lurossacademy.com/","34.278034","-119.293952","NULL",3,"12","NULL",NA,"0","0","0","0","0","0","0","0","0","0","0","0"
"395","Manchester Beauty College","Fresno","CA","93726","www.manchesterbeautycollege.edu","36.792868","-119.79116","NULL",3,"11","NULL",NA,"0","0","0","0","0","0","0","0","0","0","0","0"
"396","Tulare Beauty College","Tulare","CA","93274","www.tularebeautycollege.edu","36.204102","-119.367947","NULL",3,"22","NULL",NA,"0","0","0","0","0","0","0","0","0","0","0","0"
"397","Lyles Fresno College of Beauty","Fresno","CA","93710","lylescolleges.com","36.836251","-119.773747","NULL",3,"11","NULL",NA,"0","0","0","0","0","0","0","0","0","0","0","0"
"398","Lytles Redwood Empire Beauty College Inc","Santa Rosa","CA","95403","www.lytles-rebc.com","38.508581","-122.758546","NULL",3,"21","NULL",NA,"0","0","0","0","0","0","0","0","0","0","0","0"
"399","MTI Business College Inc","Stockton","CA","95207-4349","www.mtistockton.com","38.007318","-121.308527","NULL",3,"11","NULL",NA,"0","0","0","0","0","0","0","0","0","0","0","0"
"400","MTI College","Sacramento","CA","95841-9817","www.mticollege.edu","38.661377","-121.342568","0.8745",3,"21","NULL",NA,"0","0","0","0","0","0","0","0","0","0","0","0"
"401","Brightwood College-Sacramento","Sacramento","CA","95821","www.brightwood.edu/sacramento-ca/","38.644462","-121.380453","NULL",3,"21","NULL",NA,"0","0","0","0","0","0","0","0","0","0","0","0"
"402","Brightwood College-San Diego","San Diego","CA","92123","www.brightwood.edu/san-diego-ca/","32.821707","-117.133017","NULL",3,"11","NULL",NA,"0","0","0","0","0","0","0","0","0","0","0","0"
"403","Brightwood College-Vista","Vista","CA","92083-7736","www.brigthwood.edu/vista-ca/","33.17244","-117.220816","NULL",3,"21","NULL",NA,"0","0","0","0","0","0","0","0","0","0","0","0"
"404","College of Marin","Kentfield","CA","94904-2590","www.marin.edu","37.955014","-122.549936","NULL",1,"21","NULL",13813,"0","0","0","0","0","0","0","0","0","0","0","0"
"405","Marinello Schools of Beauty-Los Angeles","Los Angeles","CA","90023","www.marinello.com","34.027512","-118.219865","NULL",3,"11","NULL",NA,"0","0","0","0","0","0","0","0","0","0","0","0"
"406","Marymount California University","Rancho Palos Verdes","CA","90275-6299","www.marymountcalifornia.edu/","33.73463","-118.333404","NULL",2,"21","NULL",46675,"0","0","0","0","0","0","0","0","1","0","1","0"
"407","Mendocino College","Ukiah","CA","95482","www.mendocino.edu","39.19119","-123.22903","NULL",1,"41","NULL",14341,"0","0","0","0","0","0","0","0","0","0","0","0"
"408","Menlo College","Atherton","CA","94027-4301","www.menlo.edu","37.452906","-122.181444","0.4506",2,"21","995",52454,"0","0","0","0","0","0","0","0","1","0","1","0"
"409","Merced College","Merced","CA","95348-2898","www.mccd.edu","37.335348","-120.476726","NULL",1,"13","NULL",15308,"0","0","0","0","0","0","0","0","0","0","0","0"
"410","Merritt College","Oakland","CA","94619-3196","www.merritt.edu","37.789088","-122.167335","NULL",1,"11","NULL",15643,"0","0","0","0","0","0","0","0","0","0","0","0"
"411","Mills College","Oakland","CA","94613","www.mills.edu","37.782639","-122.18789","0.7614",2,"11","1152",56336,"0","1","0","1","0","0","1","1","1","1","1","1"
"412","MiraCosta College","Oceanside","CA","92056-3899","www.miracosta.edu","33.191231","-117.302283","NULL",1,"21","NULL",11241,"0","0","0","0","0","0","0","0","0","0","0","0"
"413","Marinello Schools of Beauty-San Francisco","San Francisco","CA","94103","www.marinello.com","37.78123","-122.410821","NULL",3,"11","NULL",NA,"0","0","0","0","0","0","0","0","0","0","0","0"
"414","Mission College","Santa Clara","CA","95054-1897","www.missioncollege.edu/","37.391323","-121.982174","NULL",1,"12","NULL",13665,"0","0","0","0","0","0","0","0","0","0","0","0"
"415","Modern Beauty Academy","Oxnard","CA","93030","www.modernbeautyacademy.org","34.195384","-119.181423","NULL",3,"12","NULL",NA,"0","0","0","0","0","0","0","0","0","0","0","0"
"416","Brightwood College-North Hollywood","North Hollywood","CA","91606-3231","www.brightwood.edu/north-hollywood-ca/","34.182673","-118.396131","NULL",3,"11","NULL",NA,"0","0","0","0","0","0","0","0","0","0","0","0"
"417","Modesto Junior College","Modesto","CA","95350-5800","www.mjc.edu","37.652042","-121.009723","NULL",1,"12","NULL",13569,"0","0","0","0","0","0","0","0","0","0","0","0"
"418","Moler Barber College","Oakland","CA","94609-2419","moler.org/Home_Page.html","37.826826","-122.265094","NULL",3,"11","NULL",NA,"0","0","0","0","0","0","0","0","0","0","0","0"
"419","Middlebury Institute of International Studies at Monterey","Monterey","CA","93940","www.miis.edu","36.599827","-121.896813","NULL",2,"22","NULL",NA,"0","0","0","0","0","0","0","0","0","1","0","0"
"420","Monterey Peninsula College","Monterey","CA","93940-4799","www.mpc.edu","36.590826","-121.885774","NULL",1,"22","NULL",13450,"0","0","0","0","0","0","0","0","0","0","0","0"
"421","Moorpark College","Moorpark","CA","93021-1695","www.moorparkcollege.edu/index.shtml","34.300018","-118.836624","NULL",1,"22","NULL",8631,"0","0","0","0","0","0","0","0","0","0","0","0"
"422","Mt San Antonio College","Walnut","CA","91789-1399","www.mtsac.edu","34.043786","-117.8437","NULL",1,"21","NULL",9280,"0","0","0","0","0","0","0","0","0","0","0","0"
"423","Mount Saint Mary's University","Los Angeles","CA","90049-1599","www.msmu.edu","34.082112","-118.480471","0.783",2,"11","902",48372,"0","0","0","0","1","0","1","1","1","1","1","1"
"424","Mt San Jacinto Community College District","San Jacinto","CA","92583-2399","www.msjc.edu","33.807364","-116.970063","NULL",1,"22","NULL",11843,"0","0","0","0","0","0","0","0","0","0","0","0"
"425","Mueller College","San Diego","CA","92108-3002","www.mueller.edu","32.76557","-117.163811","NULL",3,"11","NULL",34106,"0","0","0","0","0","0","0","0","0","0","0","0"
"426","Musicians Institute","Hollywood","CA","90028","www.mi.edu","34.101527","-118.33783","0.945",3,"11","NULL",39168,"0","0","0","0","0","0","0","0","0","0","0","0"
"427","Napa Valley College","Napa","CA","94558-6236","www.napavalley.edu","38.27254","-122.272565","NULL",1,"13","NULL",15445,"0","0","0","0","0","0","0","0","0","0","0","0"
"428","Everest College-Reseda","Reseda","CA","91335-4631","www.everest.edu/campus/reseda","34.200824","-118.526677","NULL",3,"11","NULL",26661,"0","0","0","0","0","0","0","0","0","0","0","0"
"429","Everest College-Gardena","Gardena","CA","90247","www.everest.edu/campus/gardena","33.893072","-118.292896","NULL",3,"13","NULL",NA,"0","0","0","0","0","0","0","0","0","0","0","0"
"430","Everest College-Alhambra","Alhambra","CA","91803","www.everest.edu/campus/alhambra","34.080181","-118.148684","NULL",3,"21","NULL",NA,"0","0","0","0","0","0","0","0","0","0","0","0"
"431","Everest College-San Bernardino","San Bernardino","CA","92408","everest.edu/campus/san_bernardino","34.059754","-117.28222","NULL",3,"12","NULL",29065,"0","0","0","0","0","0","0","0","0","0","0","0"
"432","The National Hispanic University","San Jose","CA","95127-3823","www.nhu.edu","37.359057","-121.815921","NULL",3,"11","NULL",19768,"0","0","0","0","1","0","0","0","2","0","2","0"
"433","National Holistic Institute","Emeryville","CA","94608-2008","www.nhi.edu","37.841898","-122.287672","NULL",3,"21","NULL",NA,"0","0","0","0","0","0","0","0","0","0","0","0"
"434","National University","La Jolla","CA","92037-1011","www.nu.edu","32.909469","-117.244243","NULL",2,"11","NULL",26862,"0","1","0","2","2","2","1","1","2","2","2","2"
"435","Newschool of Architecture and Design","San Diego","CA","92101","www.newschoolarch.edu","32.71331","-117.153305","0.98",3,"11","NULL",39498,"0","0","1","0","0","0","0","0","0","0","1","0"
"436","Newberry School of Beauty","Granada Hills","CA","91344-7401","www.newberryschoolofbeauty.net","34.25748","-118.499469","NULL",3,"11","NULL",NA,"0","0","0","0","0","0","0","0","0","0","0","0"
"437","North Adrian's College of Beauty Inc","Modesto","CA","95350-2381","www.adrians.edu","37.677778","-120.992753","NULL",3,"12","NULL",NA,"0","0","0","0","0","0","0","0","0","0","0","0"
"438","North-West College-Pomona","Pomona","CA","91768","www.north-westcollege.edu","34.06203","-117.751861","1",3,"21","NULL",NA,"0","0","0","0","0","0","0","0","0","0","0","0"
"439","North-West College-West Covina","West Covina","CA","91790","www.north-westcollege.edu","34.072071","-117.949583","1",3,"21","NULL",NA,"0","0","0","0","0","0","0","0","0","0","0","0"
"440","North-West College-Pasadena","Pasadena","CA","91101","www.north-westcollege.edu","34.146907","-118.139266","1",3,"12","NULL",NA,"0","0","0","0","0","0","0","0","0","0","0","0"
"441","Notre Dame de Namur University","Belmont","CA","94002-1908","www.ndnu.edu","37.517501","-122.284618","0.7771",2,"21","932",47565,"0","0","0","1","0","0","1","0","1","1","1","1"
"442","Occidental College","Los Angeles","CA","90041-3392","www.oxy.edu","34.126224","-118.210783","0.4204",2,"11","1300",63363,"0","1","0","1","0","0","1","1","1","1","0","1"
"443","Oceanside College of Beauty","Oceanside","CA","92054-5356","www.ocb.edu/","33.178889","-117.365276","NULL",3,"21","NULL",NA,"0","0","0","0","0","0","0","0","0","0","0","0"
"444","Ohlone College","Fremont","CA","94539-0390","www.ohlone.edu","37.527956","-121.914597","NULL",1,"21","NULL",16227,"0","0","0","0","0","0","0","0","0","0","0","0"
"445","Orange Coast College","Costa Mesa","CA","92626","www.orangecoastcollege.edu/","33.670171","-117.911401","NULL",1,"12","NULL",15882,"0","0","0","0","0","0","0","0","0","0","0","0"
"446","Otis College of Art and Design","Los Angeles","CA","90045-3505","www.otis.edu","33.956607","-118.416615","0.6648",2,"11","1010",53439,"0","0","1","0","0","0","0","0","0","0","0","0"
"447","Oxnard College","Oxnard","CA","93033-6699","www.oxnardcollege.edu","34.164899","-119.15549","NULL",1,"12","NULL",9523,"0","0","0","0","0","0","0","0","0","0","0","0"
"448","Hope International University","Fullerton","CA","92831-3199","www.hiu.edu","33.87616","-117.88573","0.31",2,"21","896",38119,"0","0","0","0","1","0","0","0","1","1","2","0"
"449","Concorde Career College-San Diego","San Diego","CA","92113-1964","www.concorde.edu","32.70406","-117.10187","1",3,"11","NULL",NA,"0","0","0","0","0","0","0","0","0","0","0","0"
"450","Palo Alto University","Palo Alto","CA","94304-1337","www.paloaltou.edu","37.383251","-122.186022","NULL",2,"41","NULL",NA,"0","0","0","0","0","0","0","0","1","0","0","0"
"451","Pacific Lutheran Theological Seminary","Berkeley","CA","94708-1597","www.plts.edu","37.898172","-122.260201","NULL",2,"12","NULL",NA,"0","0","0","0","0","0","0","0","0","0","0","0"
"452","Pacific Oaks College","Pasadena","CA","91103","www.pacificoaks.edu","34.153073","-118.151573","NULL",2,"12","NULL",NA,"0","0","0","0","2","0","0","0","0","0","0","0"
"453","Pacific School of Religion","Berkeley","CA","94709","www.psr.edu","37.876599","-122.263331","NULL",2,"12","NULL",NA,"0","0","0","0","0","0","0","0","0","0","0","0"
"454","Pacific States University","Los Angeles","CA","90010","www.psuca.edu","34.0607","-118.299841","NULL",2,"11","NULL",NA,"0","0","0","1","0","0","0","0","0","0","1","0"
"455","Pacific Union College","Angwin","CA","94508-9707","www.puc.edu","38.57409","-122.449639","0.4744",2,"41","1017",39564,"0","1","0","1","1","0","1","1","1","0","1","1"
"456","University of the Pacific","Stockton","CA","95211-0197","www.pacific.edu","37.980624","-121.307296","0.549",2,"11","1185",54032,"0","1","0","1","1","1","1","1","1","1","1","1"
"457","Palo Verde College","Blythe","CA","92225","www.paloverde.edu","33.661538","-114.651698","NULL",1,"42","NULL",15042,"0","0","0","0","0","0","0","0","0","0","0","0"
"458","Palomar College","San Marcos","CA","92069-1487","WWW.PALOMAR.EDU","33.15019","-117.181718","NULL",1,"21","NULL",9836,"0","0","0","0","0","0","0","0","0","0","0","0"
"459","Paris Beauty College","Concord","CA","94520","www.Parisbeautycollege.com","37.972204","-122.043458","NULL",3,"21","NULL",NA,"0","0","0","0","0","0","0","0","0","0","0","0"
"460","Pasadena City College","Pasadena","CA","91106-2003","www.pasadena.edu","34.144552","-118.118196","NULL",1,"12","NULL",11564,"0","0","0","0","0","0","0","0","0","0","0","0"
"461","Pepperdine University","Malibu","CA","90263","www.pepperdine.edu/","34.041912","-118.707677","0.3546",2,"21","1234",61164,"0","0","0","1","1","0","1","1","1","1","1","1"
"462","Pitzer College","Claremont","CA","91711-6101","www.pitzer.edu","34.103408","-117.705939","0.1302",2,"21","NULL",61416,"0","1","1","1","1","1","1","1","1","1","1","1"
"463","Platt College-San Diego","San Diego","CA","92115-3919","www.platt.edu","32.76373","-117.063483","NULL",3,"11","NULL",40278,"0","0","0","0","0","0","0","0","0","0","0","0"
"464","Point Loma Nazarene University","San Diego","CA","92106-2899","www.pointloma.edu","32.713295","-117.251204","0.6953",2,"11","1135",44198,"0","1","0","1","1","1","1","1","1","1","1","1"
"465","Pomona College","Claremont","CA","91711-6319","www.pomona.edu","34.098298","-117.711944","0.1219",2,"21","1454",59730,"0","1","0","1","0","1","1","1","1","1","0","1"
"466","Porterville College","Porterville","CA","93257","www.portervillecollege.edu","36.049256","-119.014368","NULL",1,"13","NULL",8881,"0","0","0","0","0","0","0","0","0","0","0","0"
"467","Westwood College-South Bay","Torrance","CA","90502","www.westwood.edu","33.85182","-118.289777","NULL",3,"11","NULL",29287,"0","0","0","1","0","0","0","0","0","0","1","0"
"468","Professional Institute of Beauty","El Monte","CA","91731","www.pib.edu","34.075","-118.038","NULL",3,"21","NULL",NA,"0","0","0","0","0","0","0","0","0","0","0","0"
"469","Santa Ana College","Santa Ana","CA","92706-3398","www.sac.edu","33.759203","-117.888384","NULL",1,"11","NULL",10217,"0","0","0","0","0","0","0","0","0","0","0","0"
"470","Pardee RAND Graduate School","Santa Monica","CA","90407-2138","www.prgs.edu","34.009975","-118.49047","NULL",2,"13","NULL",NA,"0","0","0","0","0","0","0","0","0","0","0","0"
"471","Shasta School of Cosmetology","Redding","CA","96003","www.shastaschoolofcosmetology.com","40.59709","-122.387231","NULL",3,"13","NULL",NA,"0","0","0","0","0","0","0","0","0","0","0","0"
"472","University of Redlands","Redlands","CA","92373-0999","www.redlands.edu","34.063571","-117.163847","0.7309",2,"13","1110",57347,"0","1","0","1","1","0","1","1","1","1","1","1"
"473","College of the Redwoods","Eureka","CA","95501-9300","www.redwoods.edu","40.696744","-124.195075","NULL",1,"41","NULL",11425,"0","0","0","0","0","0","0","0","0","0","0","0"
"474","Salon Success Academy-Upland","Upland","CA","91786","www.gotobeautyschool.com","34.108353","-117.631091","NULL",3,"21","NULL",NA,"0","0","0","0","0","0","0","0","0","0","0","0"
"475","Salon Success Academy-Corona","Corona","CA","92879","www.gotobeautyschool.com","33.84778","-117.535451","NULL",3,"12","NULL",NA,"0","0","0","0","0","0","0","0","0","0","0","0"
"476","Rio Hondo College","Whittier","CA","90601-1616","www.riohondo.edu","34.019878","-118.033329","NULL",1,"21","NULL",10902,"0","0","0","0","0","0","0","0","0","0","0","0"
"477","Riverside City College","Riverside","CA","92506","www.rcc.edu/riverside/","33.971481","-117.38054","NULL",1,"11","NULL",12204,"0","0","0","0","0","0","0","0","0","0","0","0"
"478","Argosy University-San Francisco Bay Area","Alameda","CA","94501","www.argosy.edu/sanfrancisco","37.781238","-122.267523","NULL",3,"21","NULL",NA,"0","0","0","0","0","0","0","0","1","0","1","0"
"479","Rosemead Beauty School","Rosemead","CA","91770-1639","www.rosemead-beauty-school.com","34.080756","-118.082793","NULL",3,"21","NULL",NA,"0","0","0","0","0","0","0","0","0","0","0","0"
"480","Dongguk University-Los Angeles","Los Angeles","CA","90020-1704","www.dula.edu","34.066226","-118.289927","NULL",2,"11","NULL",NA,"0","0","0","0","0","0","0","0","0","0","0","0"
"481","Rudolf Steiner College","Fair Oaks","CA","95628-6811","www.steinercollege.edu","38.63481","-121.288571","NULL",2,"21","NULL",NA,"0","0","0","0","0","0","0","0","0","0","0","0"
"482","Sacramento City College","Sacramento","CA","95822-1386","www.scc.losrios.edu/","38.541883","-121.49166","NULL",1,"11","NULL",12509,"0","0","0","0","0","0","0","0","0","0","0","0"
"483","Saddleback College","Mission Viejo","CA","92692-3635","www.saddleback.edu","33.551925","-117.664876","NULL",1,"21","NULL",15171,"0","0","0","0","0","0","0","0","0","0","0","0"
"484","Samuel Merritt University","Oakland","CA","94609","www.samuelmerritt.edu","37.82029","-122.266331","NULL",2,"11","NULL",NA,"0","0","0","0","0","0","0","0","0","0","0","0"
"485","San Diego City College","San Diego","CA","92101-4787","www.sdcity.edu/","32.718855","-117.151641","NULL",1,"11","NULL",11930,"0","0","0","0","0","0","0","0","0","0","0","0"
"486","Golf Academy of America-Carlsbad","Carlsbad","CA","92008","www.golfacademy.edu","33.12291","-117.283394","NULL",3,"12","NULL",29612,"0","0","0","0","0","0","0","0","0","0","0","0"
"487","San Diego Mesa College","San Diego","CA","92111-4998","www.sdmesa.edu/","32.804935","-117.169072","NULL",1,"11","NULL",12446,"0","0","0","0","0","0","0","0","0","0","0","0"
"488","San Diego Miramar College","San Diego","CA","92126-2999","www.sdmiramar.edu/","32.909546","-117.120888","NULL",1,"11","NULL",12395,"0","0","0","0","0","0","0","0","0","0","0","0"
"489","San Diego State University","San Diego","CA","92182","www.sdsu.edu","32.77525","-117.071228","0.3448",1,"11","1115",20631,"0","1","0","1","1","1","1","1","1","1","1","1"
"490","University of San Diego","San Diego","CA","92110-2492","www.sandiego.edu","32.77142","-117.188721","0.4625",2,"11","1243",57593,"0","1","1","1","0","1","1","1","1","1","1","1"
"491","San Francisco Art Institute","San Francisco","CA","94133-2299","www.sfai.edu","37.803575","-122.417","0.9508",2,"11","NULL",58010,"0","0","0","0","0","0","0","0","0","1","0","0"
"492","San Francisco Conservatory of Music","San Francisco","CA","94102-6011","www.sfcm.edu","37.775322","-122.420143","0.3727",2,"11","NULL",54430,"0","0","0","0","0","0","0","0","0","0","0","0"
"493","San Francisco State University","San Francisco","CA","94132","www.sfsu.edu","37.721345","-122.477905","0.6597",1,"11","990",19998,"0","1","0","1","1","1","1","1","1","1","1","1"
"494","San Francisco Theological Seminary","San Anselmo","CA","94960-0000","www.sfts.edu","37.969594","-122.564302","NULL",2,"21","NULL",NA,"0","0","0","0","0","0","0","0","0","0","0","0"
"495","University of San Francisco","San Francisco","CA","94117-1080","https://www.usfca.edu","37.775564","-122.450977","0.6005",2,"11","1152",58039,"0","1","1","1","0","0","1","1","1","2","1","1"
"496","San Joaquin College of Law","Clovis","CA","93612-1312","www.sjcl.edu","36.823978","-119.6978","NULL",2,"21","NULL",NA,"0","0","0","0","0","0","0","0","0","0","0","0"
"497","San Joaquin Delta College","Stockton","CA","95207","www.deltacollege.edu","37.994643","-121.317226","NULL",1,"11","NULL",15377,"0","0","0","0","0","0","0","0","0","0","0","0"
"498","San Joaquin Valley College-Visalia","Visalia","CA","93291-9283","www.sjvc.edu","36.328049","-119.384981","NULL",3,"41","NULL",NA,"0","0","0","0","0","0","0","0","0","0","0","0"
"499","William Jessup University","Rocklin","CA","95765-3707","WWW.JESSUP.EDU","38.819494","-121.292968","0.7581",2,"41","1009",37335,"0","0","0","0","1","0","0","0","1","1","1","1"
"500","San Jose City College","San Jose","CA","95128-2798","www.sjcc.edu","37.316293","-121.929747","NULL",1,"11","NULL",15656,"0","0","0","0","0","0","0","0","0","0","0","0"
"501","San Jose State University","San Jose","CA","95192-0001","www.sjsu.edu","37.335201","-121.881214","0.5985",1,"11","1038",21112,"0","1","0","1","1","1","1","1","1","1","1","1"
"502","College of San Mateo","San Mateo","CA","94402-3784","www.collegeofsanmateo.edu","37.534357","-122.336078","NULL",1,"21","NULL",8377,"0","0","0","0","0","0","0","0","0","0","0","0"
"503","Santa Barbara Business College-Bakersfield","Bakersfield","CA","93309","sbbcollege.edu","35.359544","-119.061264","NULL",3,"11","NULL",19639,"0","0","0","0","0","0","0","0","0","0","1","0"
"504","Westwood College-Los Angeles","Los Angeles","CA","90010","www.westwood.edu","34.061397","-118.293292","NULL",3,"11","NULL",30487,"0","0","0","2","0","0","0","0","0","0","2","0"
"505","Santa Barbara Business College-Santa Maria","Santa Maria","CA","93454","sbbcollege.edu","34.403862","-119.699744","NULL",3,"13","NULL",20297,"0","0","0","0","0","0","0","0","0","0","1","0"
"506","Santa Barbara City College","Santa Barbara","CA","93109-2394","www.sbcc.edu","34.406788","-119.698045","NULL",1,"13","NULL",15206,"0","0","0","0","0","0","0","0","0","0","0","0"
"507","Santa Clara University","Santa Clara","CA","95053","www.scu.edu","37.352706","-121.938189","0.4935",2,"12","1309",59020,"0","1","0","1","0","1","1","1","1","1","1","1"
"508","Santa Monica College","Santa Monica","CA","90405-1628","www.smc.edu","34.018968","-118.470431","NULL",1,"13","NULL",11926,"0","0","0","0","0","0","0","0","0","0","0","0"
"509","Santa Rosa Junior College","Santa Rosa","CA","95401-4395","www.santarosa.edu","38.45416","-122.720689","NULL",1,"12","NULL",12197,"0","0","0","0","0","0","0","0","0","0","0","0"
"510","Saybrook University","Oakland","CA","94612-1943","www.saybrook.edu","37.80446","-122.272391","NULL",2,"11","NULL",NA,"0","0","0","0","0","0","0","0","0","0","0","0"
"511","Scripps College","Claremont","CA","91711-3905","www.scrippscollege.edu","34.103655","-117.711336","0.284",2,"21","1360",61370,"0","1","0","1","0","1","1","1","1","1","1","1"
"512","Wyotech-Fremont","Fremont","CA","94539","www.wyotech.edu/campus/fremont","37.469279","-121.919395","NULL",3,"21","NULL",NA,"0","0","0","0","0","0","0","0","0","0","0","0"
"513","College of the Sequoias","Visalia","CA","93277-2214","www.cos.edu","36.322957","-119.314775","NULL",1,"12","NULL",6470,"0","0","0","0","0","0","0","0","0","0","0","0"
"514","Shasta Bible College and Graduate School","Redding","CA","96002","www.shasta.edu","40.564208","-122.315742","1",2,"13","NULL",20493,"0","0","0","0","1","0","0","0","0","0","0","0"
"515","Shasta College","Redding","CA","96003","www.shastacollege.edu","40.625731","-122.317982","NULL",1,"22","NULL",10869,"0","0","0","0","0","0","0","0","0","0","0","0"
"516","Sierra College","Rocklin","CA","95677-3397","www.sierracollege.edu","38.792758","-121.212646","NULL",1,"21","NULL",13850,"0","0","0","0","0","0","0","0","0","0","0","0"
"517","Sierra College of Beauty","Merced","CA","95340","sierrabeautycollege.net","37.306585","-120.495668","NULL",3,"13","NULL",NA,"0","0","0","0","0","0","0","0","0","0","0","0"
"518","Sierra Valley College of Court Reporting","Fresno","CA","93726","www.sierravalleycollege.edu","36.802756","-119.773017","NULL",3,"11","NULL",23907,"0","0","0","0","0","0","0","0","0","0","0","0"
"519","Trinity Law School","Santa Ana","CA","92705","tls.edu","33.766071","-117.852059","NULL",2,"11","NULL",NA,"0","0","0","0","0","0","0","0","0","0","0","0"
"520","Simpson University","Redding","CA","96003-8606","www.simpsonu.edu","40.61331","-122.333048","0.5736",2,"13","1024",35070,"0","0","0","0","1","0","1","1","2","1","2","1"
"521","College of the Siskiyous","Weed","CA","96094-2899","www.siskiyous.edu","41.413848","-122.389166","NULL",1,"33","NULL",13295,"0","0","0","0","0","0","0","0","0","0","0","0"
"522","Charles A Jones Career and Education Center","Sacramento","CA","95824-1529","www.caj.scusd.edu","38.51651","-121.44111","NULL",1,"11","NULL",NA,"0","0","0","0","0","0","0","0","0","0","0","0"
"523","Skyline College","San Bruno","CA","94066-1698","skylinecollege.edu","37.630543","-122.465978","NULL",1,"21","NULL",9418,"0","0","0","0","0","0","0","0","0","0","0","0"
"524","San Bernardino Valley College","San Bernardino","CA","92410-2798","www.valleycollege.edu","34.088717","-117.313814","NULL",1,"12","NULL",12504,"0","0","0","0","0","0","0","0","0","0","0","0"
"525","Saint Mary's College of California","Moraga","CA","94575","www.stmarys-ca.edu","37.83997","-122.106795","0.7595",2,"41","1109",58362,"0","1","0","0","0","1","1","1","1","1","1","1"
"526","Solano Community College","Fairfield","CA","94534-3197","www.solano.edu","38.235513","-122.120232","NULL",1,"22","NULL",13005,"0","0","0","0","0","0","0","0","0","0","0","0"
"527","Sonoma State University","Rohnert Park","CA","94928-3609","www.sonoma.edu","38.341023","-122.673261","0.8002",1,"21","984",22604,"0","1","0","1","1","1","1","1","1","1","1","1"
"528","Pinnacle College","Alhambra","CA","91803","www.pinnaclecollege.edu","34.081485","-118.150493","NULL",3,"21","NULL",NA,"0","0","0","0","0","0","0","0","0","0","0","0"
"529","South Baylo University","Anaheim","CA","92801-1701","WWW.SOUTHBAYLO.EDU","33.847936","-117.958663","NULL",2,"11","NULL",NA,"0","0","0","0","0","0","0","0","0","0","0","0"
"530","South Coast College","Orange","CA","92868-2609","www.SOUTHCOASTCOLLEGE.EDU","33.787946","-117.874109","NULL",3,"12","NULL",NA,"0","0","0","0","0","0","0","0","0","0","0","0"
"531","Vanguard University of Southern California","Costa Mesa","CA","92626","www.vanguard.edu","33.662686","-117.900911","0.58",2,"12","970",42756,"0","0","0","0","2","0","1","1","1","1","1","1"
"532","Concorde Career College-Garden Grove","Garden Grove","CA","92840-9201","www.concorde.edu","33.774741","-117.938395","1",3,"21","NULL",NA,"0","0","0","0","0","0","0","0","0","0","0","0"
"533","Southwestern College","Chula Vista","CA","91910-7299","www.swccd.edu/","32.641567","-116.997215","NULL",1,"21","NULL",10840,"0","0","0","0","0","0","0","0","0","0","0","0"
"534","Starr King School for the Ministry","Berkeley","CA","94709-1209","www.sksm.edu","37.876939","-122.261778","NULL",2,"12","NULL",NA,"0","0","0","0","0","0","0","0","0","0","0","0"
"535","Marshall B Ketchum University","Fullerton","CA","92831-1699","www.ketchum.edu","33.889819","-117.886158","NULL",2,"21","NULL",NA,"0","0","0","0","0","0","0","0","0","0","0","0"
"536","Southern California Institute of Architecture","Los Angeles","CA","90013-1822","www.sciarc.edu","34.04365","-118.232703","0.8079",2,"11","1151",58142,"0","0","1","0","0","0","0","0","0","0","0","0"
"537","University of Southern California","Los Angeles","CA","90089","www.usc.edu/","34.021058","-118.283858","0.1802",2,"11","1380",62092,"0","1","1","1","0","1","1","1","1","1","1","1"
"538","Southwestern Law School","Los Angeles","CA","90010-1106","www.swlaw.edu","34.061558","-118.288375","NULL",2,"11","NULL",NA,"0","0","0","0","0","0","0","0","0","0","0","0"
"539","Taft College","Taft","CA","93268","www.taftcollege.edu","35.149343","-119.459751","NULL",1,"32","NULL",12554,"0","0","0","0","0","0","0","0","0","0","0","0"
"540","Claremont School of Theology","Claremont","CA","91711-3199","www.cst.edu","34.107602","-117.715256","NULL",2,"21","NULL",NA,"0","0","0","0","0","0","0","0","0","0","0","0"
"541","Thomas Aquinas College","Santa Paula","CA","93060","www.thomasaquinas.edu","34.429009","-119.087141","0.827",2,"42","1261",35716,"0","0","0","0","0","0","0","0","0","0","0","0"
"542","Marinello Schools of Beauty-Lake Forest","Lake Forest","CA","92630","www.marinello.com","33.61932","-117.704674","NULL",3,"21","NULL",NA,"0","0","0","0","0","0","0","0","0","0","0","0"
